<?xml version="1.0" encoding="UTF-8"?><kml xmlns="http://earth.google.com/kml/2.2"><Document>
<Placemark id='36370530'><name>schermerhorn, Schermerhorn, v.d.Hulst</name><Point><coordinates>4.89891084495292,52.5963476762811</coordinates></Point></Placemark>
<Placemark id='36380010'><name>de rijp, De Rijp, Julianalaan</name><Point><coordinates>4.84443544756503,52.5544100720921</coordinates></Point></Placemark>
<Placemark id='36380520'><name>de rijp, De Rijp, Julianalaan</name><Point><coordinates>4.84437293255423,52.5546973826828</coordinates></Point></Placemark>
<Placemark id='36380540'><name>de rijp, De Rijp, Fluytschip</name><Point><coordinates>4.84349129605905,52.5568413339838</coordinates></Point></Placemark>
<Placemark id='36380630'><name>de rijp, De Rijp, Fluytschip</name><Point><coordinates>4.84336712241695,52.5561487369336</coordinates></Point></Placemark>
<Placemark id='36470040'><name>middenbeemster, Middenbeemster, De Knip</name><Point><coordinates>4.90768515221814,52.540041907501</coordinates></Point></Placemark>
<Placemark id='36470080'><name>middenbeemster, Middenbeemster, De Buurt</name><Point><coordinates>4.91246633133887,52.5477632944538</coordinates></Point></Placemark>
<Placemark id='36470150'><name>middenbeemster, Middenbeemster, K.Hogetoornlaan</name><Point><coordinates>4.91077207717074,52.5449254895472</coordinates></Point></Placemark>
<Placemark id='36470170'><name>middenbeemster, Middenbeemster, De Knip</name><Point><coordinates>4.9080532482022,52.5400793431272</coordinates></Point></Placemark>
<Placemark id='36470200'><name>middenbeemster, Middenbeemster, De Buurt</name><Point><coordinates>4.91307777216347,52.5484847260353</coordinates></Point></Placemark>
<Placemark id='36470520'><name>middenbeemster, Middenbeemster, C.ten Hoopestraat</name><Point><coordinates>4.91428028805593,52.5504577518905</coordinates></Point></Placemark>
<Placemark id='36470540'><name>middenbeemster, Middenbeemster, Tuyp</name><Point><coordinates>4.91842420615232,52.557304563267</coordinates></Point></Placemark>
<Placemark id='36470550'><name>middenbeemster, Middenbeemster, Velzeboer</name><Point><coordinates>4.92502978058392,52.5686185269843</coordinates></Point></Placemark>
<Placemark id='36470560'><name>middenbeemster, Middenbeemster, Hobrederweg</name><Point><coordinates>4.92271376039423,52.564448366768</coordinates></Point></Placemark>
<Placemark id='36470570'><name>middenbeemster, Middenbeemster, Hobrederweg</name><Point><coordinates>4.92197073139259,52.5635826760411</coordinates></Point></Placemark>
<Placemark id='36470580'><name>middenbeemster, Middenbeemster, Velzeboer</name><Point><coordinates>4.92532372587738,52.5687185307243</coordinates></Point></Placemark>
<Placemark id='36470590'><name>middenbeemster, Middenbeemster, Tuyp</name><Point><coordinates>4.91866666667579,52.5580784308156</coordinates></Point></Placemark>
<Placemark id='36470600'><name>middenbeemster, Middenbeemster, Witte Kan</name><Point><coordinates>4.92928294047645,52.5752137021335</coordinates></Point></Placemark>
<Placemark id='36470610'><name>middenbeemster, Middenbeemster, C.ten Hoopestraat</name><Point><coordinates>4.91410279462723,52.5505109689771</coordinates></Point></Placemark>
<Placemark id='36570020'><name>zuidoostbeemster, Zuidoostbeemster, D.Dekkerstraat</name><Point><coordinates>4.93768917536923,52.5146530964352</coordinates></Point></Placemark>
<Placemark id='36570040'><name>zuidoostbeemster, Zuidoostbeemster, Kolkpad</name><Point><coordinates>4.93113329449539,52.5161110074366</coordinates></Point></Placemark>
<Placemark id='36570060'><name>zuidoostbeemster, Zuidoostbeemster, Zuiderweg</name><Point><coordinates>4.92414165138335,52.5183397749355</coordinates></Point></Placemark>
<Placemark id='36570110'><name>zuidoostbeemster, Zuidoostbeemster, Kolkpad</name><Point><coordinates>4.93151863139424,52.5158878022713</coordinates></Point></Placemark>
<Placemark id='36570120'><name>zuidoostbeemster, Zuidoostbeemster, Volgerweg</name><Point><coordinates>4.90365013508517,52.5329704437466</coordinates></Point></Placemark>
<Placemark id='36570510'><name>zuidoostbeemster, Zuidoostbeemster, Volgerweg</name><Point><coordinates>4.90421869806502,52.5321908550542</coordinates></Point></Placemark>
<Placemark id='36570530'><name>zuidoostbeemster, Zuidoostbeemster, Arbeid Adelt</name><Point><coordinates>4.91165000787998,52.5304862906277</coordinates></Point></Placemark>
<Placemark id='36570540'><name>zuidoostbeemster, Zuidoostbeemster, Nekkerweg</name><Point><coordinates>4.92643024699127,52.5220964304614</coordinates></Point></Placemark>
<Placemark id='36570550'><name>zuidoostbeemster, Zuidoostbeemster, Jonk</name><Point><coordinates>4.92250765920423,52.5280128211916</coordinates></Point></Placemark>
<Placemark id='36570560'><name>zuidoostbeemster, Zuidoostbeemster, Halfweg</name><Point><coordinates>4.92842974717612,52.5267686347039</coordinates></Point></Placemark>
<Placemark id='36570570'><name>zuidoostbeemster, Zuidoostbeemster, Halfweg</name><Point><coordinates>4.92851937111042,52.52665214496</coordinates></Point></Placemark>
<Placemark id='36570580'><name>zuidoostbeemster, Zuidoostbeemster, Jonk</name><Point><coordinates>4.92173847856447,52.5282884167437</coordinates></Point></Placemark>
<Placemark id='36570590'><name>zuidoostbeemster, Zuidoostbeemster, Nekkerweg</name><Point><coordinates>4.92623927448197,52.5220417645268</coordinates></Point></Placemark>
<Placemark id='36570600'><name>zuidoostbeemster, Zuidoostbeemster, Arbeid Adelt</name><Point><coordinates>4.91153076221583,52.5306116363749</coordinates></Point></Placemark>
<Placemark id='37400100'><name>purmerend, Purmerend, Tramplein</name><Point><coordinates>4.94452412108965,52.5073540442835</coordinates></Point></Placemark>
<Placemark id='37400103'><name>purmerend, Purmerend, Tramplein</name><Point><coordinates>4.94417027421837,52.507388673445</coordinates></Point></Placemark>
<Placemark id='37400110'><name>purmerend, Purmerend, Ged.Singelgracht</name><Point><coordinates>4.94579662724303,52.5111964119202</coordinates></Point></Placemark>
<Placemark id='37400160'><name>purmerend, Purmerend, Ged.Singelgracht</name><Point><coordinates>4.94550661221656,52.5107369747119</coordinates></Point></Placemark>
<Placemark id='37403510'><name>zuidoostbeemster, Zuidoostbeemster, D.Dekkerstraat</name><Point><coordinates>4.93873881911479,52.514288583566</coordinates></Point></Placemark>
<Placemark id='37403530'><name>zuidoostbeemster, Zuidoostbeemster, W.Sluislaan</name><Point><coordinates>4.94183955872605,52.5135812672025</coordinates></Point></Placemark>
<Placemark id='38000070'><name>hoorn, Hoorn, Beurtschip</name><Point><coordinates>5.05639288707867,52.6586049365412</coordinates></Point></Placemark>
<Placemark id='38000090'><name>hoorn, Hoorn, Blokmergouw</name><Point><coordinates>5.05821042423158,52.656677759948</coordinates></Point></Placemark>
<Placemark id='38000130'><name>hoorn, Hoorn, Wabenstraat</name><Point><coordinates>5.06675455775853,52.6503382427186</coordinates></Point></Placemark>
<Placemark id='38000200'><name>hoorn, Hoorn, Wabenstraat</name><Point><coordinates>5.067003863973,52.6505995389345</coordinates></Point></Placemark>
<Placemark id='38000235'><name>hoorn, Hoorn, Station NS</name><Point><coordinates>5.05419227058151,52.6447317512802</coordinates></Point></Placemark>
<Placemark id='38000260'><name>hoorn, Hoorn, Beurtschip</name><Point><coordinates>5.05601399732682,52.6598530824557</coordinates></Point></Placemark>
<Placemark id='38000510'><name>hoorn, Hoorn, Zuiderkruisstraat</name><Point><coordinates>5.04612595866442,52.6427137607926</coordinates></Point></Placemark>
<Placemark id='38000530'><name>hoorn, Hoorn, Astronautenweg</name><Point><coordinates>5.03926860638578,52.641103182763</coordinates></Point></Placemark>
<Placemark id='38000540'><name>hoorn, Hoorn, Poolster</name><Point><coordinates>5.0361653768481,52.6393415795021</coordinates></Point></Placemark>
<Placemark id='38000550'><name>hoorn, Hoorn, Poolster</name><Point><coordinates>5.03610456471169,52.6395570904496</coordinates></Point></Placemark>
<Placemark id='38000560'><name>hoorn, Hoorn, Astronautenweg</name><Point><coordinates>5.04034650512854,52.6411782279207</coordinates></Point></Placemark>
<Placemark id='38000580'><name>hoorn, Hoorn, Zuiderkruisstraat</name><Point><coordinates>5.04679092980589,52.642697691641</coordinates></Point></Placemark>
<Placemark id='38001010'><name>Hoorn, Hoorn, Keern</name><Point><coordinates>5.04586105821395,52.6501992408925</coordinates></Point></Placemark>
<Placemark id='38001020'><name>hoorn, Hoorn, J.D.Pollstraat</name><Point><coordinates>5.06706395237494,52.6443716596568</coordinates></Point></Placemark>
<Placemark id='38001030'><name>Hoorn, Hoorn, Stijgbeugel</name><Point><coordinates>5.03991836277106,52.6654780164141</coordinates></Point></Placemark>
<Placemark id='38001050'><name>Hoorn, Hoorn, Hoefijzer</name><Point><coordinates>5.04100188634129,52.6630366976129</coordinates></Point></Placemark>
<Placemark id='38001120'><name>Hoorn, Hoorn, Hoefijzer</name><Point><coordinates>5.0412091719882,52.6629923653444</coordinates></Point></Placemark>
<Placemark id='38001130'><name>hoorn, Hoorn, J.D.Pollstraat</name><Point><coordinates>5.06759335890849,52.6447145923181</coordinates></Point></Placemark>
<Placemark id='38001140'><name>Hoorn, Hoorn, Stijgbeugel</name><Point><coordinates>5.03994530066597,52.6658106156282</coordinates></Point></Placemark>
<Placemark id='38003020'><name>hoorn, Hoorn, Nieuwe Steen</name><Point><coordinates>5.0646354101626,52.6551945156009</coordinates></Point></Placemark>
<Placemark id='38003030'><name>hoorn, Hoorn, Copernicus</name><Point><coordinates>5.06788441079268,52.6555088403495</coordinates></Point></Placemark>
<Placemark id='38003040'><name>hoorn, Hoorn, Copernicus</name><Point><coordinates>5.06820933948522,52.6555366731908</coordinates></Point></Placemark>
<Placemark id='38003050'><name>hoorn, Hoorn, Nieuwe Steen</name><Point><coordinates>5.06522785606879,52.6550163793503</coordinates></Point></Placemark>
<Placemark id='38004010'><name>Hoorn, Hoorn, Sportpark</name><Point><coordinates>5.04393061716035,52.6684553822398</coordinates></Point></Placemark>
<Placemark id='38004020'><name>hoorn, Hoorn, Geldelozeweg</name><Point><coordinates>5.0474544288048,52.6505273370557</coordinates></Point></Placemark>
<Placemark id='38004030'><name>hoorn, Hoorn, Wogmergouw</name><Point><coordinates>5.04664556543622,52.665299746378</coordinates></Point></Placemark>
<Placemark id='38004120'><name>hoorn, Hoorn, Wogmergouw</name><Point><coordinates>5.04604830483001,52.6660709208683</coordinates></Point></Placemark>
<Placemark id='38110100'><name>hoorn, Hoorn, Maasweg</name><Point><coordinates>5.08518568132597,52.6583220287455</coordinates></Point></Placemark>
<Placemark id='38110130'><name>hoorn, Hoorn, Maasweg</name><Point><coordinates>5.08509725216788,52.6582858560754</coordinates></Point></Placemark>
<Placemark id='38110230'><name>hoorn, Hoorn, IJsselweg</name><Point><coordinates>5.07732317544546,52.6561898544253</coordinates></Point></Placemark>
<Placemark id='38110240'><name>hoorn, Hoorn, IJsselweg</name><Point><coordinates>5.07745738512901,52.6560194499813</coordinates></Point></Placemark>
<Placemark id='38110650'><name>hoorn, Hoorn, Oscar Romero</name><Point><coordinates>5.07175449862306,52.6578378237903</coordinates></Point></Placemark>
<Placemark id='38113010'><name>hoorn, Hoorn, Scheldeweg</name><Point><coordinates>5.09625901441857,52.6466305082908</coordinates></Point></Placemark>
<Placemark id='38113020'><name>Hoorn, Hoorn, Luifel</name><Point><coordinates>5.08824292809362,52.6542855798637</coordinates></Point></Placemark>
<Placemark id='38113070'><name>Hoorn, Hoorn, Luifel</name><Point><coordinates>5.08921918803737,52.6541532233442</coordinates></Point></Placemark>
<Placemark id='54440030'><name>leiden, Leiden, Posthof</name><Point><coordinates>4.48002143322605,52.1703718962602</coordinates></Point></Placemark>
<Placemark id='54440640'><name>leiden, Leiden, Posthof</name><Point><coordinates>4.48001229958985,52.1701021742142</coordinates></Point></Placemark>
<Placemark id='54440870'><name>leiden, Leiden, CS Noordzijde/LUMC</name><Point><coordinates>4.48109930257347,52.1669645874712</coordinates></Point></Placemark>
<Placemark id='54440880'><name>leiden, Leiden, CS Noordzijde/LUMC</name><Point><coordinates>4.47990928278265,52.1665419768458</coordinates></Point></Placemark>
<Placemark id='54443010'><name>oegstgeest, Oegstgeest, Hendrik Kraemerpark</name><Point><coordinates>4.47039333395352,52.1750883022662</coordinates></Point></Placemark>
<Placemark id='54443030'><name>leiden, Leiden, Lijsterstraat</name><Point><coordinates>4.47402936955392,52.1731570238819</coordinates></Point></Placemark>
<Placemark id='54443120'><name>leiden, Leiden, Lijsterstraat</name><Point><coordinates>4.47383493284594,52.1733712406358</coordinates></Point></Placemark>
<Placemark id='54540010'><name>oegstgeest, Oegstgeest, Pres. Kennedylaan</name><Point><coordinates>4.48865871079044,52.1864462726304</coordinates></Point></Placemark>
<Placemark id='54550090'><name>oegstgeest, Oegstgeest, Leidsebuurt</name><Point><coordinates>4.46506784807412,52.1802241272194</coordinates></Point></Placemark>
<Placemark id='54550100'><name>oegstgeest, Oegstgeest, Wijttenbachweg</name><Point><coordinates>4.46675370244411,52.187805509498</coordinates></Point></Placemark>
<Placemark id='54550110'><name>oegstgeest, Oegstgeest, Duinzichtstraat</name><Point><coordinates>4.46620789804852,52.1844935264287</coordinates></Point></Placemark>
<Placemark id='54550120'><name>oegstgeest, Oegstgeest, Duinzichtstraat</name><Point><coordinates>4.46600492509419,52.1837009642746</coordinates></Point></Placemark>
<Placemark id='54550520'><name>oegstgeest, Oegstgeest, Hendrik Kraemerpark</name><Point><coordinates>4.47112845825817,52.1748872779031</coordinates></Point></Placemark>
<Placemark id='54550540'><name>oegstgeest, Oegstgeest, De Kempenaerstraat</name><Point><coordinates>4.46702360549118,52.1775608502549</coordinates></Point></Placemark>
<Placemark id='54550560'><name>oegstgeest, Oegstgeest, Leidsebuurt</name><Point><coordinates>4.46519836442279,52.1795689940417</coordinates></Point></Placemark>
<Placemark id='54550650'><name>oegstgeest, Oegstgeest, De Kempenaerstraat</name><Point><coordinates>4.46761982848254,52.1770082169388</coordinates></Point></Placemark>
<Placemark id='54554010'><name>oegstgeest, Oegstgeest, Dorpsstraat</name><Point><coordinates>4.46722652538431,52.1896967553709</coordinates></Point></Placemark>
<Placemark id='54554040'><name>oegstgeest, Oegstgeest, Dorpsstraat</name><Point><coordinates>4.46741272290924,52.1898869623533</coordinates></Point></Placemark>
<Placemark id='54559030'><name>oegstgeest, Oegstgeest, Pres. Kennedylaan</name><Point><coordinates>4.48506709975855,52.1876053402513</coordinates></Point></Placemark>
<Placemark id='54559040'><name>oegstgeest, Oegstgeest, Narcissenlaan</name><Point><coordinates>4.47520483422225,52.1900283185461</coordinates></Point></Placemark>
<Placemark id='54559050'><name>oegstgeest, Oegstgeest, Narcissenlaan</name><Point><coordinates>4.47517430242682,52.1900910012286</coordinates></Point></Placemark>
<Placemark id='54650030'><name>noordwijk, Noordwijk, Noordwijkerhoek</name><Point><coordinates>4.46570507842621,52.2293414807419</coordinates></Point></Placemark>
<Placemark id='54650060'><name>noordwijk, Noordwijk, Noordwijkerhoek</name><Point><coordinates>4.46590588365995,52.2295407901836</coordinates></Point></Placemark>
<Placemark id='54650420'><name>voorhout, Voorhout, Oosthoutlaan</name><Point><coordinates>4.4912348229723,52.2212596798216</coordinates></Point></Placemark>
<Placemark id='54650430'><name>voorhout, Voorhout, Oosthoutlaan</name><Point><coordinates>4.49060993503802,52.2217672706153</coordinates></Point></Placemark>
<Placemark id='54650500'><name>voorhout, Voorhout, Gemeentehuis/Station</name><Point><coordinates>4.48536930966394,52.2232733569579</coordinates></Point></Placemark>
<Placemark id='54650540'><name>voorhout, Voorhout, RK Kerk</name><Point><coordinates>4.48192344601931,52.2214313551861</coordinates></Point></Placemark>
<Placemark id='54650590'><name>voorhout, Voorhout, RK Kerk</name><Point><coordinates>4.48154390604528,52.2213835036654</coordinates></Point></Placemark>
<Placemark id='54650610'><name>voorhout, Voorhout, Gemeentehuis/Station</name><Point><coordinates>4.48560989268776,52.2236796675208</coordinates></Point></Placemark>
<Placemark id='54660050'><name>noordwijk, Noordwijk, Vuurtorenplein</name><Point><coordinates>4.4349163551051,52.2480806228937</coordinates></Point></Placemark>
<Placemark id='54660060'><name>noordwijk, Noordwijk, Boekerslootlaan</name><Point><coordinates>4.44153488343329,52.2301840937529</coordinates></Point></Placemark>
<Placemark id='54660070'><name>noordwijk, Noordwijk, Piet Heinplein</name><Point><coordinates>4.43989219822282,52.2447859585605</coordinates></Point></Placemark>
<Placemark id='54660110'><name>noordwijk, Noordwijk, van de Mortelstraat</name><Point><coordinates>4.4509522751319,52.2396878698213</coordinates></Point></Placemark>
<Placemark id='54660160'><name>noordwijk, Noordwijk, van de Mortelstraat</name><Point><coordinates>4.44969644014229,52.24022619738</coordinates></Point></Placemark>
<Placemark id='54660200'><name>noordwijk, Noordwijk, Piet Heinplein</name><Point><coordinates>4.43979804427794,52.2450818181177</coordinates></Point></Placemark>
<Placemark id='54660210'><name>noordwijk, Noordwijk, Boekerslootlaan</name><Point><coordinates>4.4423317333053,52.2291927650192</coordinates></Point></Placemark>
<Placemark id='54660220'><name>noordwijk, Noordwijk, Vuurtorenplein</name><Point><coordinates>4.43426634116795,52.2476619190568</coordinates></Point></Placemark>
<Placemark id='55000030'><name>haarlem, Haarlem, Station NS ingang</name><Point><coordinates>4.63938908601711,52.3873825828047</coordinates></Point></Placemark>
<Placemark id='55000053'><name>haarlem, Haarlem, Station NS</name><Point><coordinates>4.63753717563184,52.3874427763913</coordinates></Point></Placemark>
<Placemark id='55000054'><name>haarlem, Haarlem, Station NS</name><Point><coordinates>4.6382182931005,52.3871235229837</coordinates></Point></Placemark>
<Placemark id='55000100'><name>haarlem, Haarlem, Dreef</name><Point><coordinates>4.62977022776623,52.3725992797917</coordinates></Point></Placemark>
<Placemark id='55000170'><name>haarlem, Haarlem, Dreef</name><Point><coordinates>4.6295811892827,52.3724902153282</coordinates></Point></Placemark>
<Placemark id='55000253'><name>haarlem, Haarlem, Station NS</name><Point><coordinates>4.6376107679505,52.3874342543861</coordinates></Point></Placemark>
<Placemark id='55001070'><name>haarlem, Haarlem, Schipholweg/Europaweg</name><Point><coordinates>4.64562953464723,52.3699763500443</coordinates></Point></Placemark>
<Placemark id='55001075'><name>haarlem, Haarlem, Schipholweg/Europaweg</name><Point><coordinates>4.64562953464723,52.3699763500443</coordinates></Point></Placemark>
<Placemark id='55001240'><name>haarlem, Haarlem, Europaweg/Schipholweg</name><Point><coordinates>4.64453513323816,52.3695650341486</coordinates></Point></Placemark>
<Placemark id='55001241'><name>haarlem, Haarlem, Schipholweg/Europaweg</name><Point><coordinates>4.64497885110999,52.3702508971361</coordinates></Point></Placemark>
<Placemark id='55001245'><name>haarlem, Haarlem, Schipholweg/Europaweg</name><Point><coordinates>4.64497870072039,52.3702598840902</coordinates></Point></Placemark>
<Placemark id='55002090'><name>haarlem, Haarlem, Centrum/Verwulft</name><Point><coordinates>4.63262506242711,52.380014549294</coordinates></Point></Placemark>
<Placemark id='55002110'><name>haarlem, Haarlem, Tempeliersstraat</name><Point><coordinates>4.62936807745548,52.3755087871446</coordinates></Point></Placemark>
<Placemark id='55002111'><name>haarlem, Haarlem, Tempeliersstraat</name><Point><coordinates>4.62916203926508,52.3755344318373</coordinates></Point></Placemark>
<Placemark id='55002112'><name>haarlem, Haarlem, Tempeliersstraat</name><Point><coordinates>4.62992791470847,52.3754045144788</coordinates></Point></Placemark>
<Placemark id='55002240'><name>haarlem, Haarlem, Tempeliersstraat</name><Point><coordinates>4.63040133219304,52.3752008198827</coordinates></Point></Placemark>
<Placemark id='55002242'><name>haarlem, Haarlem, Tempeliersstraat</name><Point><coordinates>4.62963546164268,52.375330740319</coordinates></Point></Placemark>
<Placemark id='55002243'><name>haarlem, Haarlem, Tempeliersstraat</name><Point><coordinates>4.62953175212403,52.3753840040796</coordinates></Point></Placemark>
<Placemark id='55002260'><name>haarlem, Haarlem, Centrum/Verwulft</name><Point><coordinates>4.63276993060377,52.3801323150116</coordinates></Point></Placemark>
<Placemark id='55002350'><name>haarlem, Haarlem, Burg. Reinaldapark</name><Point><coordinates>4.65584799350893,52.370066881761</coordinates></Point></Placemark>
<Placemark id='55005520'><name>haarlem, Haarlem, Raaksbrug</name><Point><coordinates>4.62844182124524,52.3815786728341</coordinates></Point></Placemark>
<Placemark id='55005540'><name>haarlem, Haarlem, Stadsschouwburg</name><Point><coordinates>4.62673621132113,52.3782601851415</coordinates></Point></Placemark>
<Placemark id='55005550'><name>haarlem, Haarlem, Stadsschouwburg</name><Point><coordinates>4.62691258541112,52.378252329939</coordinates></Point></Placemark>
<Placemark id='55005570'><name>haarlem, Haarlem, Raaksbrug</name><Point><coordinates>4.62829119547843,52.3809395671836</coordinates></Point></Placemark>
<Placemark id='55007510'><name>haarlem, Haarlem, Rustenburgerlaan</name><Point><coordinates>4.63727696533972,52.3724313588316</coordinates></Point></Placemark>
<Placemark id='55007540'><name>haarlem, Haarlem, Burg. Reinaldapark</name><Point><coordinates>4.65308324760987,52.3703194063146</coordinates></Point></Placemark>
<Placemark id='55007580'><name>haarlem, Haarlem, Rustenburgerlaan</name><Point><coordinates>4.63644893107224,52.3727676510424</coordinates></Point></Placemark>
<Placemark id='55008510'><name>heemstede, Heemstede, Blauwe Brug</name><Point><coordinates>4.62544647747915,52.3610040841963</coordinates></Point></Placemark>
<Placemark id='55008530'><name>haarlem, Haarlem, Spanjaardslaan</name><Point><coordinates>4.62735645404607,52.3652047338813</coordinates></Point></Placemark>
<Placemark id='55008600'><name>haarlem, Haarlem, Spanjaardslaan</name><Point><coordinates>4.6263995516616,52.3644975296595</coordinates></Point></Placemark>
<Placemark id='55049980'><name>ONBEKEND, dummyfinancierwissel ZTG</name><Point><coordinates>4.67161863667345,52.3500303796216</coordinates></Point></Placemark>
<Placemark id='55130020'><name>halfweg, Halfweg, Vinkebrug</name><Point><coordinates>4.71953957242753,52.3861269565385</coordinates></Point></Placemark>
<Placemark id='55140090'><name>heemstede, Heemstede, Lanckhorstlaan</name><Point><coordinates>4.62468327464969,52.3558670583498</coordinates></Point></Placemark>
<Placemark id='55140100'><name>heemstede, Heemstede, Wipperplein</name><Point><coordinates>4.62412278817379,52.3474866774728</coordinates></Point></Placemark>
<Placemark id='55140120'><name>heemstede, Heemstede, Zandvaartkade</name><Point><coordinates>4.62453864028877,52.350617166005</coordinates></Point></Placemark>
<Placemark id='55140130'><name>heemstede, Heemstede, Julianaplein</name><Point><coordinates>4.62425871434164,52.3523859877725</coordinates></Point></Placemark>
<Placemark id='55140140'><name>heemstede, Heemstede, Julianaplein</name><Point><coordinates>4.62482198587866,52.3529199064</coordinates></Point></Placemark>
<Placemark id='55140150'><name>heemstede, Heemstede, Zandvaartkade</name><Point><coordinates>4.62383236430696,52.3490127568691</coordinates></Point></Placemark>
<Placemark id='55140160'><name>heemstede, Heemstede, Lanckhorstlaan</name><Point><coordinates>4.62529604737034,52.3569405693761</coordinates></Point></Placemark>
<Placemark id='55140230'><name>heemstede, Heemstede, Wipperplein</name><Point><coordinates>4.62357459194279,52.346081019863</coordinates></Point></Placemark>
<Placemark id='55142020'><name>cruquius, Cruquius, Ringvaartbrug</name><Point><coordinates>4.637426194351,52.3375411554364</coordinates></Point></Placemark>
<Placemark id='55142280'><name>heemstede, Heemstede, Cruquiusweg</name><Point><coordinates>4.63079691231793,52.3433950658223</coordinates></Point></Placemark>
<Placemark id='55142290'><name>heemstede, Heemstede, Cruquiusweg</name><Point><coordinates>4.63198806826433,52.3423870346241</coordinates></Point></Placemark>
<Placemark id='55146020'><name>heemstede, Heemstede, Blauwe Brug</name><Point><coordinates>4.624941524784,52.3621962282481</coordinates></Point></Placemark>
<Placemark id='55146050'><name>heemstede, Heemstede, Cesar Francklaan</name><Point><coordinates>4.62501379466049,52.358844194803</coordinates></Point></Placemark>
<Placemark id='55230010'><name>halfweg, Halfweg, Vinkebrug</name><Point><coordinates>4.72020390580231,52.3859060051502</coordinates></Point></Placemark>
<Placemark id='55230040'><name>halfweg, Halfweg, Oranje Nassaustraat</name><Point><coordinates>4.75279643416215,52.384017907069</coordinates></Point></Placemark>
<Placemark id='55230050'><name>halfweg, Halfweg, Oranje Nassaustraat</name><Point><coordinates>4.75604666250725,52.383729690605</coordinates></Point></Placemark>
<Placemark id='55230060'><name>halfweg, Halfweg, Suikerfabriek</name><Point><coordinates>4.74508612813223,52.3859716376704</coordinates></Point></Placemark>
<Placemark id='55231210'><name>halfweg, Halfweg, Oranje Nassaustraat</name><Point><coordinates>4.75434083879553,52.3828397836185</coordinates></Point></Placemark>
<Placemark id='55232150'><name>zwanenburg, Zwanenburg, Wilgenlaan</name><Point><coordinates>4.75118886887824,52.3793536094039</coordinates></Point></Placemark>
<Placemark id='55232180'><name>zwanenburg, Zwanenburg, Seevank</name><Point><coordinates>4.72838287223076,52.3851069377599</coordinates></Point></Placemark>
<Placemark id='55232200'><name>zwanenburg, Zwanenburg, Piersonstraat</name><Point><coordinates>4.74440101152465,52.3744635414645</coordinates></Point></Placemark>
<Placemark id='55232210'><name>zwanenburg, Zwanenburg, Piersonstraat</name><Point><coordinates>4.74518681153923,52.3739465122765</coordinates></Point></Placemark>
<Placemark id='55232250'><name>zwanenburg, Zwanenburg, De Olm</name><Point><coordinates>4.74710422710923,52.3764195521298</coordinates></Point></Placemark>
<Placemark id='55232260'><name>zwanenburg, Zwanenburg, De Olm</name><Point><coordinates>4.74656621621975,52.376048142477</coordinates></Point></Placemark>
<Placemark id='55232290'><name>zwanenburg, Zwanenburg, Troelstralaan</name><Point><coordinates>4.7379187512854,52.377888477303</coordinates></Point></Placemark>
<Placemark id='55232300'><name>zwanenburg, Zwanenburg, Troelstralaan</name><Point><coordinates>4.73858352710871,52.3776224866369</coordinates></Point></Placemark>
<Placemark id='55232310'><name>zwanenburg, Zwanenburg, Nauerna</name><Point><coordinates>4.73575623508629,52.3791348920498</coordinates></Point></Placemark>
<Placemark id='55232320'><name>zwanenburg, Zwanenburg, Nauerna</name><Point><coordinates>4.73528457929368,52.3792491376449</coordinates></Point></Placemark>
<Placemark id='55232380'><name>zwanenburg, Zwanenburg, Seevank</name><Point><coordinates>4.72866887665866,52.3846411630003</coordinates></Point></Placemark>
<Placemark id='55232400'><name>zwanenburg, Zwanenburg, Kinheim</name><Point><coordinates>4.73066790884269,52.383555751427</coordinates></Point></Placemark>
<Placemark id='55232401'><name>zwanenburg, Zwanenburg, Kinheim</name><Point><coordinates>4.73094722830996,52.3835393241403</coordinates></Point></Placemark>
<Placemark id='55232480'><name>zwanenburg, Zwanenburg, Wilgenlaan</name><Point><coordinates>4.75122996140479,52.3795605493465</coordinates></Point></Placemark>
<Placemark id='55241010'><name>bennebroek, Bennebroek, Schoollaan</name><Point><coordinates>4.60014285743153,52.3217497685818</coordinates></Point></Placemark>
<Placemark id='55241011'><name>bennebroek, Bennebroek, Schoollaan</name><Point><coordinates>4.60058443611741,52.3216628255807</coordinates></Point></Placemark>
<Placemark id='55247010'><name>bennebroek, Bennebroek, Anemonenplein</name><Point><coordinates>4.59369684782427,52.3245918610376</coordinates></Point></Placemark>
<Placemark id='55540080'><name>sassenheim, Sassenheim, Parklaan</name><Point><coordinates>4.52634094061659,52.2252149721336</coordinates></Point></Placemark>
<Placemark id='55540090'><name>sassenheim, Sassenheim, Zuiderstraat</name><Point><coordinates>4.51329148902133,52.2204272557238</coordinates></Point></Placemark>
<Placemark id='55540100'><name>sassenheim, Sassenheim, Raadhuis</name><Point><coordinates>4.51957885780818,52.2237183799379</coordinates></Point></Placemark>
<Placemark id='55540110'><name>sassenheim, Sassenheim, Raadhuis</name><Point><coordinates>4.51975883755538,52.223494995271</coordinates></Point></Placemark>
<Placemark id='55540120'><name>sassenheim, Sassenheim, Zuiderstraat</name><Point><coordinates>4.51275219977666,52.2203154044403</coordinates></Point></Placemark>
<Placemark id='55540130'><name>sassenheim, Sassenheim, Menneweg</name><Point><coordinates>4.52418342070619,52.2232577619225</coordinates></Point></Placemark>
<Placemark id='55540150'><name>sassenheim, Sassenheim, Parklaan</name><Point><coordinates>4.52939770352056,52.2276101117321</coordinates></Point></Placemark>
<Placemark id='56230030'><name>hoofddorp, Hoofddorp, Duinbeek</name><Point><coordinates>4.63213603554361,52.306076498069</coordinates></Point></Placemark>
<Placemark id='56230080'><name>ONBEKEND, Vijfhuizen</name><Point><coordinates>4.67690577419129,52.3443189548006</coordinates></Point></Placemark>
<Placemark id='56230090'><name>ONBEKEND, Vijfhuizen</name><Point><coordinates>4.67645649138515,52.3448824959139</coordinates></Point></Placemark>
<Placemark id='56230100'><name>hoofddorp, Hoofddorp, Floriande eiland 4</name><Point><coordinates>4.63736714623101,52.3097589145475</coordinates></Point></Placemark>
<Placemark id='56230110'><name>hoofddorp, Hoofddorp, Schiermonnikoog</name><Point><coordinates>4.65218279874845,52.3200892362329</coordinates></Point></Placemark>
<Placemark id='56230120'><name>hoofddorp, Hoofddorp, Schiermonnikoog</name><Point><coordinates>4.65222962156566,52.3199187555471</coordinates></Point></Placemark>
<Placemark id='56230130'><name>hoofddorp, Hoofddorp, Terschelling</name><Point><coordinates>4.6479058909603,52.317087560259</coordinates></Point></Placemark>
<Placemark id='56230140'><name>hoofddorp, Hoofddorp, Terschelling</name><Point><coordinates>4.64809713182859,52.3170528034276</coordinates></Point></Placemark>
<Placemark id='56230150'><name>hoofddorp, Hoofddorp, Texel</name><Point><coordinates>4.64381718318963,52.3142666682712</coordinates></Point></Placemark>
<Placemark id='56230160'><name>hoofddorp, Hoofddorp, Texel</name><Point><coordinates>4.6440233796146,52.3142140360481</coordinates></Point></Placemark>
<Placemark id='56230170'><name>hoofddorp, Hoofddorp, Haringvliet</name><Point><coordinates>4.64046623167013,52.3120794516138</coordinates></Point></Placemark>
<Placemark id='56230180'><name>hoofddorp, Hoofddorp, Haringvliet</name><Point><coordinates>4.64081950617582,52.3120007894627</coordinates></Point></Placemark>
<Placemark id='56230190'><name>hoofddorp, Hoofddorp, Rottumeroog</name><Point><coordinates>4.65540308035533,52.3222663160885</coordinates></Point></Placemark>
<Placemark id='56230200'><name>hoofddorp, Hoofddorp, Rottumeroog</name><Point><coordinates>4.65571033805938,52.3223131563123</coordinates></Point></Placemark>
<Placemark id='56230600'><name>hoofddorp, Hoofddorp, Spaarne Ziekenhuis</name><Point><coordinates>4.65406836649843,52.3249274794178</coordinates></Point></Placemark>
<Placemark id='56230610'><name>hoofddorp, Hoofddorp, Spaarne Ziekenhuis</name><Point><coordinates>4.65376168612038,52.3248446867221</coordinates></Point></Placemark>
<Placemark id='56230620'><name>hoofddorp, Hoofddorp, Spaarne Ziekenhuis</name><Point><coordinates>4.65472825286127,52.3249405550119</coordinates></Point></Placemark>
<Placemark id='56230630'><name>hoofddorp, Hoofddorp, Floriande eiland 4</name><Point><coordinates>4.63768911222336,52.309796907409</coordinates></Point></Placemark>
<Placemark id='56232010'><name>cruquius, Cruquius, Spieringweg</name><Point><coordinates>4.64865769051231,52.3292080503703</coordinates></Point></Placemark>
<Placemark id='56232030'><name>cruquius, Cruquius, Ringvaartbrug</name><Point><coordinates>4.63706487197263,52.3372152986408</coordinates></Point></Placemark>
<Placemark id='56232060'><name>cruquius, Cruquius, Spieringweg</name><Point><coordinates>4.6474055962628,52.3303956270842</coordinates></Point></Placemark>
<Placemark id='56237010'><name>zwaanshoek, Zwaanshoek, Bennebroekerdijk</name><Point><coordinates>4.61207632053187,52.3170649171616</coordinates></Point></Placemark>
<Placemark id='56237020'><name>zwaanshoek, Zwaanshoek, Bennebroekerdijk</name><Point><coordinates>4.61228005893195,52.3171561323178</coordinates></Point></Placemark>
<Placemark id='56237030'><name>zwaanshoek, Zwaanshoek, Hanepoel</name><Point><coordinates>4.6141055912907,52.3117033594522</coordinates></Point></Placemark>
<Placemark id='56237040'><name>zwaanshoek, Zwaanshoek, Hanepoel</name><Point><coordinates>4.61413225887779,52.3118563302468</coordinates></Point></Placemark>
<Placemark id='56237050'><name>zwaanshoek, Zwaanshoek, Supermarkt</name><Point><coordinates>4.61761436870925,52.3106297033565</coordinates></Point></Placemark>
<Placemark id='56237060'><name>zwaanshoek, Zwaanshoek, Supermarkt</name><Point><coordinates>4.61771358286021,52.310828085491</coordinates></Point></Placemark>
<Placemark id='56237070'><name>zwaanshoek, Zwaanshoek, Noppenstraat</name><Point><coordinates>4.62189344647678,52.3125000141256</coordinates></Point></Placemark>
<Placemark id='56237080'><name>zwaanshoek, Zwaanshoek, Noppenstraat</name><Point><coordinates>4.62158675734162,52.3124261251109</coordinates></Point></Placemark>
<Placemark id='56237090'><name>cruquius, Cruquius, Spieringweg</name><Point><coordinates>4.64381163697626,52.3268677902092</coordinates></Point></Placemark>
<Placemark id='56237100'><name>cruquius, Cruquius, Spieringweg</name><Point><coordinates>4.64410153927856,52.3270763349521</coordinates></Point></Placemark>
<Placemark id='56237110'><name>zwaanshoek, Zwaanshoek, Begraafplaats</name><Point><coordinates>4.62972094519478,52.3170084558655</coordinates></Point></Placemark>
<Placemark id='56237120'><name>zwaanshoek, Zwaanshoek, Begraafplaats</name><Point><coordinates>4.63002752638991,52.3170913108294</coordinates></Point></Placemark>
<Placemark id='56239970'><name>ONBEKEND, dummyfinancierwissel ZTG</name><Point><coordinates>4.67151619608906,52.3500117843594</coordinates></Point></Placemark>
<Placemark id='56242010'><name>hoofddorp, Hoofddorp, Vijfhuizerweg</name><Point><coordinates>4.72035604050877,52.3249961360476</coordinates></Point></Placemark>
<Placemark id='56242011'><name>hoofddorp, Hoofddorp, Vijfhuizerweg</name><Point><coordinates>4.72032414137224,52.3251667266004</coordinates></Point></Placemark>
<Placemark id='56242020'><name>hoofddorp, Hoofddorp, Cornelia's Hoeve</name><Point><coordinates>4.71182086330562,52.3190696139376</coordinates></Point></Placemark>
<Placemark id='56242030'><name>hoofddorp, Hoofddorp, Hoofdweg 271</name><Point><coordinates>4.73679215558043,52.3365382126632</coordinates></Point></Placemark>
<Placemark id='56242031'><name>hoofddorp, Hoofddorp, Hoofdweg 271</name><Point><coordinates>4.73650004315883,52.3364467278262</coordinates></Point></Placemark>
<Placemark id='56242050'><name>lijnden, Lijnden, Lijnden</name><Point><coordinates>4.75024284707866,52.3460306620969</coordinates></Point></Placemark>
<Placemark id='56242070'><name>hoofddorp, Hoofddorp, Hoofdweg 199</name><Point><coordinates>4.74284769162166,52.3408765341311</coordinates></Point></Placemark>
<Placemark id='56242079'><name>hoofddorp, Hoofddorp, Hoofdweg 199</name><Point><coordinates>4.74353288884174,52.3411858506588</coordinates></Point></Placemark>
<Placemark id='56330560'><name>hoofddorp, Hoofddorp, Overbos</name><Point><coordinates>4.66680486686801,52.3192624158974</coordinates></Point></Placemark>
<Placemark id='56330580'><name>hoofddorp, Hoofddorp, Spaarne Ziekenhuis</name><Point><coordinates>4.65474306851478,52.3249316587752</coordinates></Point></Placemark>
<Placemark id='56330590'><name>hoofddorp, Hoofddorp, Overbos</name><Point><coordinates>4.66863721216904,52.3184197039132</coordinates></Point></Placemark>
<Placemark id='56330600'><name>hoofddorp, Hoofddorp, Spaarne Ziekenhuis</name><Point><coordinates>4.65429683132913,52.3244165807626</coordinates></Point></Placemark>
<Placemark id='56330610'><name>hoofddorp, Hoofddorp, Spaarne Ziekenhuis</name><Point><coordinates>4.6538330939786,52.3249619730256</coordinates></Point></Placemark>
<Placemark id='56330620'><name>hoofddorp, Hoofddorp, Overbos</name><Point><coordinates>4.66804710746608,52.3186318289977</coordinates></Point></Placemark>
<Placemark id='56330630'><name>hoofddorp, Hoofddorp, Overbos</name><Point><coordinates>4.6672766420826,52.3191124926475</coordinates></Point></Placemark>
<Placemark id='56330640'><name>hoofddorp, Hoofddorp, Bornholm</name><Point><coordinates>4.66772264285456,52.3096868192658</coordinates></Point></Placemark>
<Placemark id='56330650'><name>hoofddorp, Hoofddorp, Bornholm</name><Point><coordinates>4.66839188112787,52.3100144559191</coordinates></Point></Placemark>
<Placemark id='56330660'><name>hoofddorp, Hoofddorp, Toolenburg</name><Point><coordinates>4.66954933269393,52.3028131180571</coordinates></Point></Placemark>
<Placemark id='56330670'><name>hoofddorp, Hoofddorp, Toolenburg</name><Point><coordinates>4.66892648822497,52.3032497484492</coordinates></Point></Placemark>
<Placemark id='56330680'><name>hoofddorp, Hoofddorp, Graan voor Visch</name><Point><coordinates>4.68401243053605,52.2949725958501</coordinates></Point></Placemark>
<Placemark id='56330690'><name>hoofddorp, Hoofddorp, Graan voor Visch</name><Point><coordinates>4.68336066482692,52.2954001418921</coordinates></Point></Placemark>
<Placemark id='56330710'><name>hoofddorp, Hoofddorp, Station</name><Point><coordinates>4.69851013140639,52.2921368272487</coordinates></Point></Placemark>
<Placemark id='56332020'><name>hoofddorp, Hoofddorp, Houtwijkerveld</name><Point><coordinates>4.67793790673872,52.3137032276545</coordinates></Point></Placemark>
<Placemark id='56332030'><name>hoofddorp, Hoofddorp, Houtwijkerveld</name><Point><coordinates>4.67860537420767,52.3132308658912</coordinates></Point></Placemark>
<Placemark id='56332040'><name>hoofddorp, Hoofddorp, RK Kerk</name><Point><coordinates>4.6871822257962,52.3087160511331</coordinates></Point></Placemark>
<Placemark id='56332050'><name>hoofddorp, Hoofddorp, RK Kerk</name><Point><coordinates>4.68764326145477,52.3083053324001</coordinates></Point></Placemark>
<Placemark id='56332080'><name>hoofddorp, Hoofddorp, Marktplein</name><Point><coordinates>4.6920967020019,52.304826282246</coordinates></Point></Placemark>
<Placemark id='56332090'><name>hoofddorp, Hoofddorp, Marktplein</name><Point><coordinates>4.69213717061315,52.305051219392</coordinates></Point></Placemark>
<Placemark id='56332101'><name>hoofddorp, Hoofddorp, Prins Hendriklaan</name><Point><coordinates>4.69944061715961,52.301157187188</coordinates></Point></Placemark>
<Placemark id='56332111'><name>hoofddorp, Hoofddorp, Prins Hendriklaan</name><Point><coordinates>4.7000119287973,52.3011874723473</coordinates></Point></Placemark>
<Placemark id='56332120'><name>hoofddorp, Hoofddorp, Kalorama</name><Point><coordinates>4.70461599025879,52.2992457712893</coordinates></Point></Placemark>
<Placemark id='56332130'><name>hoofddorp, Hoofddorp, Kalorama</name><Point><coordinates>4.70461847454299,52.2990840021419</coordinates></Point></Placemark>
<Placemark id='56332250'><name>hoofddorp, Hoofddorp, Asserweg</name><Point><coordinates>4.66959318188337,52.3064535206691</coordinates></Point></Placemark>
<Placemark id='56332260'><name>hoofddorp, Hoofddorp, Asserweg</name><Point><coordinates>4.66947458449851,52.3065336928861</coordinates></Point></Placemark>
<Placemark id='56332270'><name>hoofddorp, Hoofddorp, Henri Didonweg</name><Point><coordinates>4.64969684648082,52.3090365096325</coordinates></Point></Placemark>
<Placemark id='56332280'><name>hoofddorp, Hoofddorp, Henri Didonweg</name><Point><coordinates>4.64940405066557,52.3090077194581</coordinates></Point></Placemark>
<Placemark id='56332290'><name>hoofddorp, Hoofddorp, Kelloggstraat</name><Point><coordinates>4.67395338323783,52.3061203774497</coordinates></Point></Placemark>
<Placemark id='56332300'><name>hoofddorp, Hoofddorp, Kelloggstraat</name><Point><coordinates>4.67396674632067,52.3062013499057</coordinates></Point></Placemark>
<Placemark id='56332320'><name>hoofddorp, Hoofddorp, Boslaan</name><Point><coordinates>4.707931369272,52.303902651527</coordinates></Point></Placemark>
<Placemark id='56332330'><name>hoofddorp, Hoofddorp, WKC Lutulistraat</name><Point><coordinates>4.67850484852126,52.3029839689026</coordinates></Point></Placemark>
<Placemark id='56332340'><name>hoofddorp, Hoofddorp, WKC Lutulistraat</name><Point><coordinates>4.67840179674741,52.3030103152597</coordinates></Point></Placemark>
<Placemark id='56332440'><name>hoofddorp, Hoofddorp, Wijkermeerstraat</name><Point><coordinates>4.70098128700678,52.3115202697096</coordinates></Point></Placemark>
<Placemark id='56332450'><name>hoofddorp, Hoofddorp, Wijkermeerstraat</name><Point><coordinates>4.70097892737516,52.3116730512211</coordinates></Point></Placemark>
<Placemark id='56332460'><name>hoofddorp, Hoofddorp, Burg. van Stamplein</name><Point><coordinates>4.69221933772991,52.301672223864</coordinates></Point></Placemark>
<Placemark id='56332461'><name>hoofddorp, Hoofddorp, Burg. van Stamplein</name><Point><coordinates>4.69150989697135,52.3020365595669</coordinates></Point></Placemark>
<Placemark id='56332470'><name>hoofddorp, Hoofddorp, Burg. van Stamplein</name><Point><coordinates>4.69251759188289,52.3013504090852</coordinates></Point></Placemark>
<Placemark id='56332471'><name>hoofddorp, Hoofddorp, Burg. van Stamplein</name><Point><coordinates>4.69185143527842,52.3017599409725</coordinates></Point></Placemark>
<Placemark id='56332480'><name>hoofddorp, Hoofddorp, Wallenbergstraat</name><Point><coordinates>4.68375548247142,52.3010199853388</coordinates></Point></Placemark>
<Placemark id='56332490'><name>hoofddorp, Hoofddorp, Wallenbergstraat</name><Point><coordinates>4.68384642689091,52.3008317785846</coordinates></Point></Placemark>
<Placemark id='56332540'><name>hoofddorp, Hoofddorp, Nieuweweg</name><Point><coordinates>4.69188970540298,52.2965021964944</coordinates></Point></Placemark>
<Placemark id='56332550'><name>hoofddorp, Hoofddorp, Nieuweweg</name><Point><coordinates>4.69144686624227,52.2966973274399</coordinates></Point></Placemark>
<Placemark id='56332560'><name>hoofddorp, Hoofddorp, Floriande Centrum</name><Point><coordinates>4.63933555657009,52.307811991499</coordinates></Point></Placemark>
<Placemark id='56332570'><name>hoofddorp, Hoofddorp, Floriande Centrum</name><Point><coordinates>4.63942307331461,52.3078395089181</coordinates></Point></Placemark>
<Placemark id='56332580'><name>hoofddorp, Hoofddorp, Station</name><Point><coordinates>4.69828248148188,52.29263882843</coordinates></Point></Placemark>
<Placemark id='56332583'><name>hoofddorp, Hoofddorp, Station</name><Point><coordinates>4.69783915140621,52.2928699322832</coordinates></Point></Placemark>
<Placemark id='56332584'><name>hoofddorp, Hoofddorp, Station</name><Point><coordinates>4.69840112907828,52.2925496397766</coordinates></Point></Placemark>
<Placemark id='56332600'><name>hoofddorp, Hoofddorp, Beemsterstraat</name><Point><coordinates>4.6970357753427,52.3087380094704</coordinates></Point></Placemark>
<Placemark id='56332610'><name>hoofddorp, Hoofddorp, Beemsterstraat</name><Point><coordinates>4.69682980640906,52.3087817471826</coordinates></Point></Placemark>
<Placemark id='56332660'><name>hoofddorp, Hoofddorp, De President</name><Point><coordinates>4.67030224767006,52.2897671012545</coordinates></Point></Placemark>
<Placemark id='56332670'><name>hoofddorp, Hoofddorp, De President</name><Point><coordinates>4.6727593057393,52.2910133315258</coordinates></Point></Placemark>
<Placemark id='56332680'><name>hoofddorp, Hoofddorp, Jadelaan</name><Point><coordinates>4.67784014213777,52.2950256089056</coordinates></Point></Placemark>
<Placemark id='56332690'><name>hoofddorp, Hoofddorp, Jadelaan</name><Point><coordinates>4.67698682914356,52.2943014465542</coordinates></Point></Placemark>
<Placemark id='56332700'><name>hoofddorp, Hoofddorp, Graan voor Visch</name><Point><coordinates>4.68456741910438,52.2997395303319</coordinates></Point></Placemark>
<Placemark id='56332710'><name>hoofddorp, Hoofddorp, Graan voor Visch</name><Point><coordinates>4.68416620156093,52.2991529265091</coordinates></Point></Placemark>
<Placemark id='56332720'><name>hoofddorp, Hoofddorp, Koning Willem I laan</name><Point><coordinates>4.70514714907505,52.3018912988276</coordinates></Point></Placemark>
<Placemark id='56332730'><name>hoofddorp, Hoofddorp, Koning Willem I laan</name><Point><coordinates>4.70605915691701,52.3026515443241</coordinates></Point></Placemark>
<Placemark id='56332770'><name>hoofddorp, Hoofddorp, Cornelia's Hoeve</name><Point><coordinates>4.71106358463939,52.3187147585275</coordinates></Point></Placemark>
<Placemark id='56332800'><name>hoofddorp, Hoofddorp, WKC 't Paradijs</name><Point><coordinates>4.65753439606372,52.3157452224083</coordinates></Point></Placemark>
<Placemark id='56332810'><name>hoofddorp, Hoofddorp, WKC 't Paradijs</name><Point><coordinates>4.65728805427278,52.3155639428528</coordinates></Point></Placemark>
<Placemark id='56332830'><name>hoofddorp, Hoofddorp, Corversbos</name><Point><coordinates>4.66106988939437,52.3192722902006</coordinates></Point></Placemark>
<Placemark id='56332840'><name>hoofddorp, Hoofddorp, Breeburgsingel</name><Point><coordinates>4.65854898424007,52.3075364550643</coordinates></Point></Placemark>
<Placemark id='56332850'><name>hoofddorp, Hoofddorp, Breeburgsingel</name><Point><coordinates>4.65851089416827,52.3071767005314</coordinates></Point></Placemark>
<Placemark id='56332890'><name>hoofddorp, Hoofddorp, Stationsweg</name><Point><coordinates>4.69293331085187,52.3085252514287</coordinates></Point></Placemark>
<Placemark id='56332900'><name>hoofddorp, Hoofddorp, Stationsweg</name><Point><coordinates>4.69362691936403,52.3082417061021</coordinates></Point></Placemark>
<Placemark id='56332910'><name>hoofddorp, Hoofddorp, Van den Berghlaan</name><Point><coordinates>4.70072462328968,52.3053530406415</coordinates></Point></Placemark>
<Placemark id='56332920'><name>hoofddorp, Hoofddorp, Van den Berghlaan</name><Point><coordinates>4.70034510179033,52.3052429815135</coordinates></Point></Placemark>
<Placemark id='56332930'><name>hoofddorp, Hoofddorp, Liesbos</name><Point><coordinates>4.65296609662869,52.3117442614949</coordinates></Point></Placemark>
<Placemark id='56332940'><name>hoofddorp, Hoofddorp, Liesbos</name><Point><coordinates>4.65318574585754,52.3117636008276</coordinates></Point></Placemark>
<Placemark id='56332950'><name>hoofddorp, Hoofddorp, De Meerstede</name><Point><coordinates>4.69009435757841,52.3100275185644</coordinates></Point></Placemark>
<Placemark id='56332960'><name>hoofddorp, Hoofddorp, De Meerstede</name><Point><coordinates>4.68984325963062,52.3101428818679</coordinates></Point></Placemark>
<Placemark id='56332970'><name>hoofddorp, Hoofddorp, Oranjestraat</name><Point><coordinates>4.68705318627566,52.3113217978298</coordinates></Point></Placemark>
<Placemark id='56332980'><name>hoofddorp, Hoofddorp, Oranjestraat</name><Point><coordinates>4.68624700345639,52.3112990468651</coordinates></Point></Placemark>
<Placemark id='56332990'><name>hoofddorp, Hoofddorp, Rustenburgpark</name><Point><coordinates>4.65884985901732,52.3034937087547</coordinates></Point></Placemark>
<Placemark id='56333000'><name>hoofddorp, Hoofddorp, Rustenburgpark</name><Point><coordinates>4.65881472424151,52.3047428245831</coordinates></Point></Placemark>
<Placemark id='56333030'><name>hoofddorp, Hoofddorp, Corversbos</name><Point><coordinates>4.66134618586031,52.3194177935141</coordinates></Point></Placemark>
<Placemark id='56333060'><name>hoofddorp, Hoofddorp, Aletta Jacobsdreef</name><Point><coordinates>4.66392897658221,52.3004150331179</coordinates></Point></Placemark>
<Placemark id='56333070'><name>hoofddorp, Hoofddorp, Aletta Jacobsdreef</name><Point><coordinates>4.66390038912313,52.3003699182487</coordinates></Point></Placemark>
<Placemark id='56333080'><name>hoofddorp, Hoofddorp, Joke Smitstraat</name><Point><coordinates>4.675908313574,52.2984923597541</coordinates></Point></Placemark>
<Placemark id='56333090'><name>hoofddorp, Hoofddorp, Joke Smitstraat</name><Point><coordinates>4.67589609977043,52.2983394903421</coordinates></Point></Placemark>
<Placemark id='56333100'><name>hoofddorp, Hoofddorp, Mary Zeldenruststr.</name><Point><coordinates>4.67034304125217,52.2972363847955</coordinates></Point></Placemark>
<Placemark id='56333110'><name>hoofddorp, Hoofddorp, Mary Zeldenruststr.</name><Point><coordinates>4.67065188046814,52.2971753406419</coordinates></Point></Placemark>
<Placemark id='56333120'><name>hoofddorp, Hoofddorp, Saturnusstraat</name><Point><coordinates>4.70134274055707,52.2957035451562</coordinates></Point></Placemark>
<Placemark id='56333130'><name>hoofddorp, Hoofddorp, Saturnusstraat</name><Point><coordinates>4.70132309059658,52.2960269984559</coordinates></Point></Placemark>
<Placemark id='56333160'><name>hoofddorp, Hoofddorp, Jupiterstraat</name><Point><coordinates>4.70494121279409,52.2981151636041</coordinates></Point></Placemark>
<Placemark id='56333170'><name>hoofddorp, Hoofddorp, Jupiterstraat</name><Point><coordinates>4.70451818058341,52.2979779025457</coordinates></Point></Placemark>
<Placemark id='56333290'><name>hoofddorp, Hoofddorp, Arnolduspark</name><Point><coordinates>4.70540721358735,52.3059643455385</coordinates></Point></Placemark>
<Placemark id='56333300'><name>hoofddorp, Hoofddorp, Arnolduspark</name><Point><coordinates>4.70511012507976,52.3062142953453</coordinates></Point></Placemark>
<Placemark id='56333310'><name>hoofddorp, Hoofddorp, Opaallaan</name><Point><coordinates>4.68228195464981,52.2959419838737</coordinates></Point></Placemark>
<Placemark id='56337030'><name>hoofddorp, Hoofddorp, Zwembad</name><Point><coordinates>4.66453525761117,52.3055059469567</coordinates></Point></Placemark>
<Placemark id='56337040'><name>hoofddorp, Hoofddorp, Zwembad</name><Point><coordinates>4.66454728802379,52.3056678043634</coordinates></Point></Placemark>
<Placemark id='56337050'><name>hoofddorp, Hoofddorp, IJweg/Altenburg</name><Point><coordinates>4.65567172619901,52.3068445931941</coordinates></Point></Placemark>
<Placemark id='56337060'><name>hoofddorp, Hoofddorp, IJweg/Leenderbos</name><Point><coordinates>4.65460276593265,52.3076468963505</coordinates></Point></Placemark>
<Placemark id='56432090'><name>nieuw-vennep, Nieuw-Vennep, Zuiderdreef</name><Point><coordinates>4.62682879569333,52.2614706812511</coordinates></Point></Placemark>
<Placemark id='56432110'><name>nieuw-vennep, Nieuw-Vennep, Westerkim</name><Point><coordinates>4.62199397619021,52.2640819775791</coordinates></Point></Placemark>
<Placemark id='56432120'><name>nieuw-vennep, Nieuw-Vennep, Westerdreef</name><Point><coordinates>4.62492135612387,52.2676422053223</coordinates></Point></Placemark>
<Placemark id='56432130'><name>nieuw-vennep, Nieuw-Vennep, Westerdreef</name><Point><coordinates>4.62569064822429,52.268060616678</coordinates></Point></Placemark>
<Placemark id='56432140'><name>nieuw-vennep, Nieuw-Vennep, Westerkim</name><Point><coordinates>4.62168591942837,52.2641069469087</coordinates></Point></Placemark>
<Placemark id='56432160'><name>nieuw-vennep, Nieuw-Vennep, Zuiderdreef</name><Point><coordinates>4.62573665463739,52.2619490068682</coordinates></Point></Placemark>
<Placemark id='56432270'><name>nieuw-vennep, Nieuw-Vennep, Landei</name><Point><coordinates>4.62081968423339,52.2557154258993</coordinates></Point></Placemark>
<Placemark id='56432280'><name>nieuw-vennep, Nieuw-Vennep, Landei</name><Point><coordinates>4.62471687311601,52.2582033794492</coordinates></Point></Placemark>
<Placemark id='56432300'><name>abbenes, Abbenes, Lisserweg/Hoofdweg</name><Point><coordinates>4.60532759131965,52.2446753685509</coordinates></Point></Placemark>
<Placemark id='56432460'><name>nieuw-vennep, Nieuw-Vennep, Hoofdweg 1194</name><Point><coordinates>4.64218346151594,52.2700082843987</coordinates></Point></Placemark>
<Placemark id='56432469'><name>nieuw-vennep, Nieuw-Vennep, Hoofdweg 1194</name><Point><coordinates>4.64184848547634,52.2698893275228</coordinates></Point></Placemark>
<Placemark id='56432470'><name>nieuw-vennep, Nieuw-Vennep, Hoeve Klaverblad</name><Point><coordinates>4.65201567820966,52.2770086320313</coordinates></Point></Placemark>
<Placemark id='56432540'><name>nieuw-vennep, Nieuw-Vennep, Noorderdreef</name><Point><coordinates>4.63789579917437,52.2688396944397</coordinates></Point></Placemark>
<Placemark id='56432550'><name>nieuw-vennep, Nieuw-Vennep, Noorderdreef</name><Point><coordinates>4.63773678107167,52.2687128530925</coordinates></Point></Placemark>
<Placemark id='56432560'><name>nieuw-vennep, Nieuw-Vennep, Lucas Bolsstraat</name><Point><coordinates>4.63235199378493,52.2717794740027</coordinates></Point></Placemark>
<Placemark id='56432570'><name>nieuw-vennep, Nieuw-Vennep, Lucas Bolsstraat</name><Point><coordinates>4.63245682999537,52.2716453222658</coordinates></Point></Placemark>
<Placemark id='56432580'><name>nieuw-vennep, Nieuw-Vennep, Raiffeisenstraat</name><Point><coordinates>4.62799032896425,52.2698011242033</coordinates></Point></Placemark>
<Placemark id='56432590'><name>nieuw-vennep, Nieuw-Vennep, Raiffeisenstraat</name><Point><coordinates>4.62870185618659,52.2701742040029</coordinates></Point></Placemark>
<Placemark id='56432600'><name>nieuw-vennep, Nieuw-Vennep, Laan van Berlioz</name><Point><coordinates>4.61675810953012,52.2669780830132</coordinates></Point></Placemark>
<Placemark id='56432610'><name>nieuw-vennep, Nieuw-Vennep, Laan van Berlioz</name><Point><coordinates>4.6171805746538,52.2671156577168</coordinates></Point></Placemark>
<Placemark id='56432630'><name>nieuw-vennep, Nieuw-Vennep, Hoeve Klaverblad</name><Point><coordinates>4.65616172811457,52.279730759282</coordinates></Point></Placemark>
<Placemark id='56432650'><name>nieuw-vennep, Nieuw-Vennep, Laan van Norma</name><Point><coordinates>4.62602519329549,52.2733387790993</coordinates></Point></Placemark>
<Placemark id='56432660'><name>nieuw-vennep, Nieuw-Vennep, Laan van Norma</name><Point><coordinates>4.62574791378663,52.2732740766101</coordinates></Point></Placemark>
<Placemark id='56432680'><name>nieuw-vennep, Nieuw-Vennep, Getsewoud Centrum</name><Point><coordinates>4.62189670090385,52.2705887299326</coordinates></Point></Placemark>
<Placemark id='56432690'><name>nieuw-vennep, Nieuw-Vennep, Getsewoud Centrum</name><Point><coordinates>4.6222317830835,52.2706987561609</coordinates></Point></Placemark>
<Placemark id='56432700'><name>nieuw-vennep, Nieuw-Vennep, Laan van Bizet</name><Point><coordinates>4.61366089496489,52.2648007068614</coordinates></Point></Placemark>
<Placemark id='56432710'><name>nieuw-vennep, Nieuw-Vennep, Laan van Bizet</name><Point><coordinates>4.6135900015027,52.2646654211965</coordinates></Point></Placemark>
<Placemark id='56532010'><name>nieuw-vennep, Nieuw-Vennep, Lisserweg/Hoofdweg</name><Point><coordinates>4.60131761245637,52.2420691625131</coordinates></Point></Placemark>
<Placemark id='56532020'><name>abbenes, Abbenes, Langerak</name><Point><coordinates>4.59455347259223,52.2371164336268</coordinates></Point></Placemark>
<Placemark id='56532030'><name>abbenes, Abbenes, Langerak</name><Point><coordinates>4.59284410681806,52.2360982761248</coordinates></Point></Placemark>
<Placemark id='56532040'><name>abbenes, Abbenes, Doctor Heijebrug</name><Point><coordinates>4.59058710957572,52.2346000280422</coordinates></Point></Placemark>
<Placemark id='56532050'><name>abbenes, Abbenes, Doctor Heijebrug</name><Point><coordinates>4.59009072187244,52.2345247740705</coordinates></Point></Placemark>
<Placemark id='56532060'><name>abbenes, Abbenes, Viadukt A44</name><Point><coordinates>4.57623594190457,52.2284263536427</coordinates></Point></Placemark>
<Placemark id='56532070'><name>abbenes, Abbenes, Viadukt A44</name><Point><coordinates>4.57488238806408,52.2280035950832</coordinates></Point></Placemark>
<Placemark id='57000073'><name>amsterdam, Amsterdam, Marnixstraat</name><Point><coordinates>4.87664109908506,52.3693105350931</coordinates></Point></Placemark>
<Placemark id='57002150'><name>amsterdam, Amsterdam, Valeriusplein</name><Point><coordinates>4.86503992589973,52.3519585250044</coordinates></Point></Placemark>
<Placemark id='57002170'><name>amsterdam, Amsterdam, Haarlemmermeerstation</name><Point><coordinates>4.85761733648162,52.3491393386562</coordinates></Point></Placemark>
<Placemark id='57002171'><name>amsterdam, Amsterdam, Haarlemmermeerstation</name><Point><coordinates>4.85704677065489,52.3502153170193</coordinates></Point></Placemark>
<Placemark id='57002200'><name>amsterdam, Amsterdam, Valeriusplein</name><Point><coordinates>4.86417854598953,52.351568248042</coordinates></Point></Placemark>
<Placemark id='57002330'><name>amsterdam, Amsterdam, Centraal Station</name><Point><coordinates>4.898102179611,52.3778405889354</coordinates></Point></Placemark>
<Placemark id='57002340'><name>amsterdam, Amsterdam, Centraal Station</name><Point><coordinates>4.897870087644,52.3775789868774</coordinates></Point></Placemark>
<Placemark id='57002370'><name>amsterdam, Amsterdam, Emmastraat</name><Point><coordinates>4.87001570982377,52.3532116939781</coordinates></Point></Placemark>
<Placemark id='57002380'><name>amsterdam, Amsterdam, Emmastraat</name><Point><coordinates>4.86963766420501,52.3529044577735</coordinates></Point></Placemark>
<Placemark id='57002390'><name>amsterdam, Amsterdam, Raamplein</name><Point><coordinates>4.87970262981269,52.3660971039787</coordinates></Point></Placemark>
<Placemark id='57002400'><name>amsterdam, Amsterdam, Raamplein</name><Point><coordinates>4.87984625921215,52.3663763391552</coordinates></Point></Placemark>
<Placemark id='57002410'><name>amsterdam, Amsterdam, Leidseplein</name><Point><coordinates>4.88127504253334,52.3633985270206</coordinates></Point></Placemark>
<Placemark id='57002412'><name>amsterdam, Amsterdam, Leidseplein</name><Point><coordinates>4.87963461243806,52.3630589591196</coordinates></Point></Placemark>
<Placemark id='57002420'><name>amsterdam, Amsterdam, Leidseplein</name><Point><coordinates>4.88172881211286,52.3635173058537</coordinates></Point></Placemark>
<Placemark id='57002450'><name>amsterdam, Amsterdam, Museumplein</name><Point><coordinates>4.87851643116822,52.3555853463673</coordinates></Point></Placemark>
<Placemark id='57002460'><name>amsterdam, Amsterdam, Museumplein</name><Point><coordinates>4.87958433272108,52.3559045018509</coordinates></Point></Placemark>
<Placemark id='57002510'><name>amsterdam, Amsterdam, Jacob Obrechtstraat</name><Point><coordinates>4.87635152542144,52.3549289051924</coordinates></Point></Placemark>
<Placemark id='57002520'><name>amsterdam, Amsterdam, Jacob Obrechtstraat</name><Point><coordinates>4.87601693691861,52.3546668159501</coordinates></Point></Placemark>
<Placemark id='57002530'><name>amsterdam, Amsterdam, Nieuwezijds Kolk</name><Point><coordinates>4.89272097394866,52.3757510689657</coordinates></Point></Placemark>
<Placemark id='57002540'><name>amsterdam, Amsterdam, Nieuwezijds Kolk</name><Point><coordinates>4.89372892388194,52.376231622055</coordinates></Point></Placemark>
<Placemark id='57002550'><name>amsterdam, Amsterdam, Dam</name><Point><coordinates>4.89123769939177,52.3744416482836</coordinates></Point></Placemark>
<Placemark id='57002560'><name>amsterdam, Amsterdam, Dam</name><Point><coordinates>4.8900776589802,52.3731245782283</coordinates></Point></Placemark>
<Placemark id='57002570'><name>amsterdam, Amsterdam, Westermarkt</name><Point><coordinates>4.88360511456969,52.3741218257723</coordinates></Point></Placemark>
<Placemark id='57002580'><name>amsterdam, Amsterdam, Westermarkt</name><Point><coordinates>4.88441417301138,52.3739994360357</coordinates></Point></Placemark>
<Placemark id='57002590'><name>amsterdam, Amsterdam, Marnixstraat</name><Point><coordinates>4.87610709821161,52.3723281058802</coordinates></Point></Placemark>
<Placemark id='57002600'><name>amsterdam, Amsterdam, Marnixstraat</name><Point><coordinates>4.87700176488132,52.3724218415619</coordinates></Point></Placemark>
<Placemark id='57002610'><name>amsterdam, Amsterdam, Elandsgracht</name><Point><coordinates>4.87747718199417,52.3693860393286</coordinates></Point></Placemark>
<Placemark id='57002620'><name>amsterdam, Amsterdam, Elandsgracht</name><Point><coordinates>4.87748752740891,52.3697635682683</coordinates></Point></Placemark>
<Placemark id='57002630'><name>amsterdam, Amsterdam, Hobbemastraat</name><Point><coordinates>4.88338532765922,52.3598573713188</coordinates></Point></Placemark>
<Placemark id='57002640'><name>amsterdam, Amsterdam, Hobbemastraat</name><Point><coordinates>4.88344037248339,52.3601811641221</coordinates></Point></Placemark>
<Placemark id='57130310'><name>amsterdam, Amsterdam, Bos en Lommerplein</name><Point><coordinates>4.84718135025968,52.3781585785976</coordinates></Point></Placemark>
<Placemark id='57130320'><name>amsterdam, Amsterdam, Bos en Lommerplein</name><Point><coordinates>4.84524660053578,52.3778441565609</coordinates></Point></Placemark>
<Placemark id='57130350'><name>amsterdam, Amsterdam, Arlandaweg</name><Point><coordinates>4.83473626512359,52.3856957990603</coordinates></Point></Placemark>
<Placemark id='57130360'><name>amsterdam, Amsterdam, Arlandaweg</name><Point><coordinates>4.83535360692293,52.3856627265167</coordinates></Point></Placemark>
<Placemark id='57132040'><name>amsterdam, Amsterdam, Aalsmeerplein</name><Point><coordinates>4.8468419255331,52.3469515421488</coordinates></Point></Placemark>
<Placemark id='57132050'><name>amsterdam, Amsterdam, Aalsmeerplein</name><Point><coordinates>4.84624112029754,52.346876895281</coordinates></Point></Placemark>
<Placemark id='57132080'><name>amsterdam, Amsterdam, Maassluisstraat</name><Point><coordinates>4.83893157852911,52.3469511129569</coordinates></Point></Placemark>
<Placemark id='57132090'><name>amsterdam, Amsterdam, Maassluisstraat</name><Point><coordinates>4.83838748710594,52.3470384690882</coordinates></Point></Placemark>
<Placemark id='57132100'><name>amsterdam, Amsterdam, Ottho Heldringstraat</name><Point><coordinates>4.8337661556281,52.3469090957233</coordinates></Point></Placemark>
<Placemark id='57132110'><name>amsterdam, Amsterdam, Ottho Heldringstraat</name><Point><coordinates>4.8331196651746,52.3469689854045</coordinates></Point></Placemark>
<Placemark id='57132130'><name>amsterdam, Amsterdam, C.Krusemanstraat</name><Point><coordinates>4.8581337780254,52.350139290975</coordinates></Point></Placemark>
<Placemark id='57132140'><name>amsterdam, Amsterdam, Henk Sneevlietweg</name><Point><coordinates>4.82791359691173,52.3443290485504</coordinates></Point></Placemark>
<Placemark id='57132200'><name>amsterdam, Amsterdam, Zeilstraat</name><Point><coordinates>4.85697604086236,52.3512216304951</coordinates></Point></Placemark>
<Placemark id='57132230'><name>amsterdam, Amsterdam, Hoofddorpplein</name><Point><coordinates>4.84935097310343,52.3506299847783</coordinates></Point></Placemark>
<Placemark id='57132240'><name>amsterdam, Amsterdam, Hoofddorpplein</name><Point><coordinates>4.84955448280097,52.3507926893442</coordinates></Point></Placemark>
<Placemark id='57132250'><name>amsterdam, Amsterdam, Naaldwijkstraat</name><Point><coordinates>4.84242503605015,52.3469043303563</coordinates></Point></Placemark>
<Placemark id='57132260'><name>amsterdam, Amsterdam, Naaldwijkstraat</name><Point><coordinates>4.84264615536551,52.3468244578789</coordinates></Point></Placemark>
<Placemark id='57132280'><name>amsterdam, Amsterdam, Aletta Jacobslaan</name><Point><coordinates>4.82889435831158,52.3468592506526</coordinates></Point></Placemark>
<Placemark id='57132290'><name>amsterdam, Amsterdam, Aletta Jacobslaan</name><Point><coordinates>4.82854102499815,52.3469474612855</coordinates></Point></Placemark>
<Placemark id='57140010'><name>amsterdam, Amsterdam, Hervormd Lyceum</name><Point><coordinates>4.87728938875471,52.3486774708155</coordinates></Point></Placemark>
<Placemark id='57140020'><name>amsterdam, Amsterdam, Hervormd Lyceum</name><Point><coordinates>4.87732557006626,52.3493606965198</coordinates></Point></Placemark>
<Placemark id='57140030'><name>amsterdam, Amsterdam, Vossius Gymnasium</name><Point><coordinates>4.88292181038637,52.3450975099667</coordinates></Point></Placemark>
<Placemark id='57140040'><name>amsterdam, Amsterdam, Vossius Gymnasium</name><Point><coordinates>4.88249553134817,52.3451586072514</coordinates></Point></Placemark>
<Placemark id='57140250'><name>amsterdam, Amsterdam, Strawinskylaan</name><Point><coordinates>4.86872224297852,52.3395446234136</coordinates></Point></Placemark>
<Placemark id='57140300'><name>amsterdam, Amsterdam, W. van Weldammelaan</name><Point><coordinates>4.87696149344601,52.3350685679996</coordinates></Point></Placemark>
<Placemark id='57140310'><name>amsterdam, Amsterdam, W. van Weldammelaan</name><Point><coordinates>4.87646411688487,52.3349405933086</coordinates></Point></Placemark>
<Placemark id='57140320'><name>amsterdam, Amsterdam, Gustav Mahlerlaan</name><Point><coordinates>4.87728986742617,52.3371371737717</coordinates></Point></Placemark>
<Placemark id='57140330'><name>amsterdam, Amsterdam, Gustav Mahlerlaan</name><Point><coordinates>4.87667126794963,52.3373412256174</coordinates></Point></Placemark>
<Placemark id='57142030'><name>amsterdam, Amsterdam, VU Medisch Centrum</name><Point><coordinates>4.86020328829561,52.3353007063509</coordinates></Point></Placemark>
<Placemark id='57142040'><name>amsterdam, Amsterdam, Kalfjesl./Amstelv.wg</name><Point><coordinates>4.85756816316381,52.3225082770214</coordinates></Point></Placemark>
<Placemark id='57142070'><name>amsterdam, Amsterdam, A.J.Ernststraat</name><Point><coordinates>4.86964638033932,52.3320169012864</coordinates></Point></Placemark>
<Placemark id='57142100'><name>amsterdam, Amsterdam, van Boshuizenstraat</name><Point><coordinates>4.86986520445307,52.3245669700866</coordinates></Point></Placemark>
<Placemark id='57142120'><name>amsterdam, Amsterdam, A.J.Ernststraat</name><Point><coordinates>4.86982116705449,52.3321255192134</coordinates></Point></Placemark>
<Placemark id='57142160'><name>amsterdam, Amsterdam, Haarlemmermeerstation</name><Point><coordinates>4.85713528559652,52.3489484375323</coordinates></Point></Placemark>
<Placemark id='57142170'><name>amsterdam, Amsterdam, Prinses Irenestraat</name><Point><coordinates>4.8768249225324,52.3431210289827</coordinates></Point></Placemark>
<Placemark id='57142210'><name>amsterdam, Amsterdam, Prinses Irenestraat</name><Point><coordinates>4.87669895447506,52.3425902071104</coordinates></Point></Placemark>
<Placemark id='57142220'><name>amsterdam, Amsterdam, Station Zuid</name><Point><coordinates>4.87445798155623,52.3409537318379</coordinates></Point></Placemark>
<Placemark id='57142225'><name>amsterdam, Amsterdam, Station Zuid</name><Point><coordinates>4.87397459619246,52.3408797342901</coordinates></Point></Placemark>
<Placemark id='57142230'><name>amsterdam, Amsterdam, Station Zuid</name><Point><coordinates>4.87356561808241,52.3407161799474</coordinates></Point></Placemark>
<Placemark id='57142250'><name>amsterdam, Amsterdam, Kalfjeslaan/Beneluxb.</name><Point><coordinates>4.86939447236662,52.3221651652103</coordinates></Point></Placemark>
<Placemark id='57142260'><name>amsterdam, Amsterdam, De Boelelaan/VU</name><Point><coordinates>4.86787860933524,52.3351458961265</coordinates></Point></Placemark>
<Placemark id='57142280'><name>amsterdam, Amsterdam, van Boshuizenstraat</name><Point><coordinates>4.86877067871922,52.3240858251516</coordinates></Point></Placemark>
<Placemark id='57142340'><name>amsterdam, Amsterdam, Van Nijenrodeweg</name><Point><coordinates>4.857605912183,52.326723731926</coordinates></Point></Placemark>
<Placemark id='57142350'><name>amsterdam, Amsterdam, Van Nijenrodeweg</name><Point><coordinates>4.85741093369769,52.3270823715214</coordinates></Point></Placemark>
<Placemark id='57142510'><name>amsterdam, Amsterdam, Backershagen</name><Point><coordinates>4.87703477318132,52.3248587488688</coordinates></Point></Placemark>
<Placemark id='57142520'><name>amsterdam, Amsterdam, Backershagen</name><Point><coordinates>4.87515945622403,52.3246619037661</coordinates></Point></Placemark>
<Placemark id='57142530'><name>amsterdam, Amsterdam, Strawinskylaan</name><Point><coordinates>4.86831956663445,52.3401001010488</coordinates></Point></Placemark>
<Placemark id='57142550'><name>amsterdam, Amsterdam, Gelderlandplein</name><Point><coordinates>4.87637858996361,52.3321719851116</coordinates></Point></Placemark>
<Placemark id='57142560'><name>amsterdam, Amsterdam, Gelderlandplein</name><Point><coordinates>4.87661424521887,52.332092112083</coordinates></Point></Placemark>
<Placemark id='57142570'><name>amsterdam, Amsterdam, IJsbaanpad</name><Point><coordinates>4.85736681432026,52.3406178012711</coordinates></Point></Placemark>
<Placemark id='57142580'><name>amsterdam, Amsterdam, IJsbaanpad</name><Point><coordinates>4.85772110105392,52.3416709580367</coordinates></Point></Placemark>
<Placemark id='57142590'><name>amsterdam, Amsterdam, VU Medisch Centrum</name><Point><coordinates>4.85729077275984,52.3346945047739</coordinates></Point></Placemark>
<Placemark id='57142600'><name>amsterdam, Amsterdam, VU Medisch Centrum</name><Point><coordinates>4.85769920662217,52.3348940646888</coordinates></Point></Placemark>
<Placemark id='57142610'><name>amsterdam, Amsterdam, Koenenkade</name><Point><coordinates>4.85738325448068,52.33063243219</coordinates></Point></Placemark>
<Placemark id='57142620'><name>amsterdam, Amsterdam, Koenenkade</name><Point><coordinates>4.85756131398447,52.3316937903431</coordinates></Point></Placemark>
<Placemark id='57142630'><name>amsterdam, Amsterdam, Stadionplein</name><Point><coordinates>4.85669420373807,52.344102048832</coordinates></Point></Placemark>
<Placemark id='57142640'><name>amsterdam, Amsterdam, Stadionplein</name><Point><coordinates>4.85696209713029,52.3437886769886</coordinates></Point></Placemark>
<Placemark id='57142870'><name>amsterdam, Amsterdam, Stat. Amstelveenseweg</name><Point><coordinates>4.8572909199307,52.3383705138552</coordinates></Point></Placemark>
<Placemark id='57142880'><name>amsterdam, Amsterdam, Stat. Amstelveenseweg</name><Point><coordinates>4.8575147576615,52.3380569432387</coordinates></Point></Placemark>
<Placemark id='57142881'><name>amsterdam, Amsterdam, Stat. Amstelveenseweg</name><Point><coordinates>4.85866134747084,52.3391136414724</coordinates></Point></Placemark>
<Placemark id='57142920'><name>amsterdam, Amsterdam, Kastelenstraat</name><Point><coordinates>4.87944285670897,52.3259296685351</coordinates></Point></Placemark>
<Placemark id='57142930'><name>amsterdam, Amsterdam, Hogewerf</name><Point><coordinates>4.87884466595059,52.334618296003</coordinates></Point></Placemark>
<Placemark id='57142940'><name>amsterdam, Amsterdam, De Boelelaan/VU</name><Point><coordinates>4.86748490369535,52.3349374484122</coordinates></Point></Placemark>
<Placemark id='57142970'><name>amsterdam, Amsterdam, Hogewerf</name><Point><coordinates>4.87940720527348,52.3341803098384</coordinates></Point></Placemark>
<Placemark id='57142980'><name>amsterdam, Amsterdam, Loowaard</name><Point><coordinates>4.87932817677335,52.3308275253457</coordinates></Point></Placemark>
<Placemark id='57142990'><name>amsterdam, Amsterdam, Loowaard</name><Point><coordinates>4.87959079666146,52.3309544813504</coordinates></Point></Placemark>
<Placemark id='57143010'><name>amsterdam, Amsterdam, Kastelenstraat</name><Point><coordinates>4.87955249904147,52.326604224015</coordinates></Point></Placemark>
<Placemark id='57143070'><name>amsterdam, Amsterdam, VU Medisch Centrum</name><Point><coordinates>4.86082268044519,52.3350338293466</coordinates></Point></Placemark>
<Placemark id='57144010'><name>amsterdam, Amsterdam, Stat. Amstelveenseweg</name><Point><coordinates>4.85683246259133,52.3374427172865</coordinates></Point></Placemark>
<Placemark id='57152660'><name>diemen, Diemen, Vinkenbrug</name><Point><coordinates>4.98073655093022,52.3334392869445</coordinates></Point></Placemark>
<Placemark id='57152690'><name>diemen, Diemen, Vinkenbrug</name><Point><coordinates>4.98085622079678,52.3331880414148</coordinates></Point></Placemark>
<Placemark id='57232010'><name>badhoevedorp, Badhoevedorp, Prins Mauritslaan</name><Point><coordinates>4.76696755180657,52.34118516883</coordinates></Point></Placemark>
<Placemark id='57232020'><name>badhoevedorp, Badhoevedorp, Prins Mauritslaan</name><Point><coordinates>4.76759999963976,52.3410806277689</coordinates></Point></Placemark>
<Placemark id='57232060'><name>badhoevedorp, Badhoevedorp, PA Verkuyllaan</name><Point><coordinates>4.77906514592082,52.332170229715</coordinates></Point></Placemark>
<Placemark id='57232070'><name>badhoevedorp, Badhoevedorp, PA Verkuyllaan</name><Point><coordinates>4.7787548566381,52.3323304159253</coordinates></Point></Placemark>
<Placemark id='57232080'><name>badhoevedorp, Badhoevedorp, RK Kerk</name><Point><coordinates>4.7802199410594,52.3356993976568</coordinates></Point></Placemark>
<Placemark id='57232090'><name>badhoevedorp, Badhoevedorp, RK Kerk</name><Point><coordinates>4.77976660618914,52.3355892171259</coordinates></Point></Placemark>
<Placemark id='57232110'><name>badhoevedorp, Badhoevedorp, Reigerstraat</name><Point><coordinates>4.78160570920488,52.3373692497913</coordinates></Point></Placemark>
<Placemark id='57232120'><name>badhoevedorp, Badhoevedorp, Havikstraat</name><Point><coordinates>4.784964511719,52.3385458235081</coordinates></Point></Placemark>
<Placemark id='57232130'><name>badhoevedorp, Badhoevedorp, Havikstraat</name><Point><coordinates>4.78490777341406,52.3384017292742</coordinates></Point></Placemark>
<Placemark id='57232140'><name>badhoevedorp, Badhoevedorp, Spechtstraat</name><Point><coordinates>4.78922212985553,52.3383696829043</coordinates></Point></Placemark>
<Placemark id='57232150'><name>badhoevedorp, Badhoevedorp, Spechtstraat</name><Point><coordinates>4.78899962503925,52.3385483150646</coordinates></Point></Placemark>
<Placemark id='57232170'><name>badhoevedorp, Badhoevedorp, Rijstvogelstraat</name><Point><coordinates>4.79001506344155,52.3361447029725</coordinates></Point></Placemark>
<Placemark id='57232180'><name>badhoevedorp, Badhoevedorp, Rijstvogelstraat</name><Point><coordinates>4.79013146836886,52.3362171931243</coordinates></Point></Placemark>
<Placemark id='57232190'><name>amsterdam, Amsterdam, Sloterweg 837</name><Point><coordinates>4.81440129011417,52.3417837836892</coordinates></Point></Placemark>
<Placemark id='57232200'><name>amsterdam, Amsterdam, Sportpark Sloten</name><Point><coordinates>4.80746606678343,52.3413455603124</coordinates></Point></Placemark>
<Placemark id='57232210'><name>amsterdam, Amsterdam, Sportpark Sloten</name><Point><coordinates>4.80676069452534,52.3414229930439</coordinates></Point></Placemark>
<Placemark id='57232220'><name>amsterdam, Amsterdam, Ditlaar</name><Point><coordinates>4.8009610864861,52.3416730271639</coordinates></Point></Placemark>
<Placemark id='57232230'><name>amsterdam, Amsterdam, Ditlaar</name><Point><coordinates>4.80112261164733,52.3416648394035</coordinates></Point></Placemark>
<Placemark id='57232240'><name>amsterdam, Amsterdam, Osdorperweg</name><Point><coordinates>4.79763918179528,52.3431934423562</coordinates></Point></Placemark>
<Placemark id='57232250'><name>amsterdam, Amsterdam, Osdorperweg</name><Point><coordinates>4.79734510842674,52.3432369160886</coordinates></Point></Placemark>
<Placemark id='57232260'><name>amsterdam, Amsterdam, Langsom</name><Point><coordinates>4.79363778532787,52.3417353879594</coordinates></Point></Placemark>
<Placemark id='57232270'><name>badhoevedorp, Badhoevedorp, Schuilhoeve</name><Point><coordinates>4.78410230496825,52.328564918222</coordinates></Point></Placemark>
<Placemark id='57232320'><name>amsterdam, Amsterdam, Sloterweg 837</name><Point><coordinates>4.81469580089358,52.3417043184969</coordinates></Point></Placemark>
<Placemark id='57232360'><name>badhoevedorp, Badhoevedorp, De Meerwende</name><Point><coordinates>4.7719375681837,52.3383350020573</coordinates></Point></Placemark>
<Placemark id='57232370'><name>badhoevedorp, Badhoevedorp, De Meerwende</name><Point><coordinates>4.7730660809345,52.338430742852</coordinates></Point></Placemark>
<Placemark id='57232380'><name>badhoevedorp, Badhoevedorp, Lorentzplein</name><Point><coordinates>4.77754935549032,52.3389212937777</coordinates></Point></Placemark>
<Placemark id='57232390'><name>badhoevedorp, Badhoevedorp, Lorentzplein</name><Point><coordinates>4.7775954703755,52.338768737972</coordinates></Point></Placemark>
<Placemark id='57232400'><name>badhoevedorp, Badhoevedorp, Reigerstraat</name><Point><coordinates>4.78075093629025,52.3376434953475</coordinates></Point></Placemark>
<Placemark id='57232410'><name>badhoevedorp, Badhoevedorp, Uiverstraat</name><Point><coordinates>4.79290954998907,52.3369412175457</coordinates></Point></Placemark>
<Placemark id='57232420'><name>badhoevedorp, Badhoevedorp, Uiverstraat</name><Point><coordinates>4.79261623559674,52.3369307562296</coordinates></Point></Placemark>
<Placemark id='57232430'><name>badhoevedorp, Badhoevedorp, Nieuwe Meerdijk 69</name><Point><coordinates>4.79309944195944,52.3391981179492</coordinates></Point></Placemark>
<Placemark id='57232440'><name>badhoevedorp, Badhoevedorp, Nieuwe Meerdijk 69</name><Point><coordinates>4.79315680913737,52.3392972721219</coordinates></Point></Placemark>
<Placemark id='57232450'><name>lijnden, Lijnden, Lijnden</name><Point><coordinates>4.75076868609541,52.346204260313</coordinates></Point></Placemark>
<Placemark id='57232460'><name>amsterdam, Amsterdam, Langsom</name><Point><coordinates>4.79303774277484,52.341615534979</coordinates></Point></Placemark>
<Placemark id='57232490'><name>badhoevedorp, Badhoevedorp, Kamerlingh Onneslaan</name><Point><coordinates>4.77535128457703,52.3397727821924</coordinates></Point></Placemark>
<Placemark id='57232500'><name>badhoevedorp, Badhoevedorp, Kamerlingh Onneslaan</name><Point><coordinates>4.77543795814362,52.3398720966095</coordinates></Point></Placemark>
<Placemark id='57232510'><name>amsterdam, Amsterdam, Sloterweg 700</name><Point><coordinates>4.82249643357992,52.342182201553</coordinates></Point></Placemark>
<Placemark id='57232520'><name>amsterdam, Amsterdam, Sloterweg 700</name><Point><coordinates>4.82271779360384,52.3420843917372</coordinates></Point></Placemark>
<Placemark id='57232530'><name>amsterdam, Amsterdam, L. Armstrongstraat</name><Point><coordinates>4.8249000477976,52.3424183418381</coordinates></Point></Placemark>
<Placemark id='57232540'><name>amsterdam, Amsterdam, L. Armstrongstraat</name><Point><coordinates>4.82553112702291,52.3424123508924</coordinates></Point></Placemark>
<Placemark id='57232550'><name>amsterdam, Amsterdam, Henk Sneevlietweg</name><Point><coordinates>4.82750419090811,52.3442102716388</coordinates></Point></Placemark>
<Placemark id='57232560'><name>badhoevedorp, Badhoevedorp, Schuilhoeve</name><Point><coordinates>4.78300457590893,52.3294581034548</coordinates></Point></Placemark>
<Placemark id='57240010'><name>amstelveen, Amstelveen, Busstation</name><Point><coordinates>4.8575242721885,52.3028157288594</coordinates></Point></Placemark>
<Placemark id='57240018'><name>amstelveen, Amstelveen, Busstation</name><Point><coordinates>4.85873787538709,52.301859457338</coordinates></Point></Placemark>
<Placemark id='57240019'><name>amstelveen, Amstelveen, Busstation</name><Point><coordinates>4.85848661929462,52.3020291036306</coordinates></Point></Placemark>
<Placemark id='57240021'><name>amstelveen, Amstelveen, Busstation</name><Point><coordinates>4.85734920209977,52.3027430418392</coordinates></Point></Placemark>
<Placemark id='57240022'><name>amstelveen, Amstelveen, Busstation</name><Point><coordinates>4.85725888118499,52.3029403699674</coordinates></Point></Placemark>
<Placemark id='57240023'><name>amstelveen, Amstelveen, Busstation</name><Point><coordinates>4.85732073810465,52.3026710114791</coordinates></Point></Placemark>
<Placemark id='57240024'><name>amstelveen, Amstelveen, Busstation</name><Point><coordinates>4.85713175866813,52.3025353468281</coordinates></Point></Placemark>
<Placemark id='57240025'><name>amstelveen, Amstelveen, Busstation</name><Point><coordinates>4.85727922096116,52.3024641047994</coordinates></Point></Placemark>
<Placemark id='57240050'><name>amstelveen, Amstelveen, Oranjebaan</name><Point><coordinates>4.87093039085634,52.3035940358747</coordinates></Point></Placemark>
<Placemark id='57240060'><name>amstelveen, Amstelveen, Oranjebaan</name><Point><coordinates>4.8730802365926,52.3027944945865</coordinates></Point></Placemark>
<Placemark id='57240070'><name>amstelveen, Amstelveen, Sacharovlaan</name><Point><coordinates>4.83263202846739,52.2826136984226</coordinates></Point></Placemark>
<Placemark id='57240080'><name>amstelveen, Amstelveen, Sacharovlaan</name><Point><coordinates>4.83298952770971,52.2833254191933</coordinates></Point></Placemark>
<Placemark id='57240600'><name>amstelveen, Amstelveen, Busstation</name><Point><coordinates>4.85841417295137,52.3019568768998</coordinates></Point></Placemark>
<Placemark id='57240610'><name>amstelveen, Amstelveen, Busstation</name><Point><coordinates>4.85835446234534,52.3020464884689</coordinates></Point></Placemark>
<Placemark id='57242010'><name>amstelveen, Amstelveen, Bovenkerkerweg</name><Point><coordinates>4.84221757876858,52.2872870371628</coordinates></Point></Placemark>
<Placemark id='57242020'><name>amstelveen, Amstelveen, Zagerij</name><Point><coordinates>4.84098301491721,52.2816009898554</coordinates></Point></Placemark>
<Placemark id='57242030'><name>amstelveen, Amstelveen, Zagerij</name><Point><coordinates>4.84030247540833,52.2809327390412</coordinates></Point></Placemark>
<Placemark id='57242040'><name>amstelveen, Amstelveen, Nesserlaan</name><Point><coordinates>4.83957790482118,52.2778914728865</coordinates></Point></Placemark>
<Placemark id='57242050'><name>amstelveen, Amstelveen, Oakpark</name><Point><coordinates>4.84576191842984,52.2995268345335</coordinates></Point></Placemark>
<Placemark id='57242060'><name>amstelveen, Amstelveen, Gr.v.Prinstererlaan</name><Point><coordinates>4.86270410182887,52.3061733050245</coordinates></Point></Placemark>
<Placemark id='57242070'><name>amstelveen, Amstelveen, Dorpsstraat</name><Point><coordinates>4.84593595611641,52.3032935463231</coordinates></Point></Placemark>
<Placemark id='57242090'><name>amstelveen, Amstelveen, Gr.v.Prinstererlaan</name><Point><coordinates>4.86238324214083,52.306028076217</coordinates></Point></Placemark>
<Placemark id='57242110'><name>amstelveen, Amstelveen, Camera Obscuralaan</name><Point><coordinates>4.87693918055745,52.3025325830875</coordinates></Point></Placemark>
<Placemark id='57242120'><name>amstelveen, Amstelveen, Camera Obscuralaan</name><Point><coordinates>4.87710137482852,52.3024523921487</coordinates></Point></Placemark>
<Placemark id='57242130'><name>amstelveen, Amstelveen, Rembrandtweg</name><Point><coordinates>4.87060486647925,52.3164631924486</coordinates></Point></Placemark>
<Placemark id='57242140'><name>amstelveen, Amstelveen, Zonnestein</name><Point><coordinates>4.86317300250253,52.3111726228742</coordinates></Point></Placemark>
<Placemark id='57242150'><name>amstelveen, Amstelveen, Zonnestein</name><Point><coordinates>4.8633815739642,52.31089492376</coordinates></Point></Placemark>
<Placemark id='57242190'><name>amstelveen, Amstelveen, Rembrandtweg</name><Point><coordinates>4.87019811239894,52.3161288660279</coordinates></Point></Placemark>
<Placemark id='57242200'><name>amstelveen, Amstelveen, Kalfjeslaan/Beneluxb.</name><Point><coordinates>4.86888479731694,52.3218483598956</coordinates></Point></Placemark>
<Placemark id='57242210'><name>amstelveen, Amstelveen, Saskia v.Uylenburgw.</name><Point><coordinates>4.87495719993898,52.3167607410839</coordinates></Point></Placemark>
<Placemark id='57242220'><name>amstelveen, Amstelveen, Graaf Aelbrechtlaan</name><Point><coordinates>4.86313000019837,52.3086019104995</coordinates></Point></Placemark>
<Placemark id='57242230'><name>amstelveen, Amstelveen, Graaf Aelbrechtlaan</name><Point><coordinates>4.86331114204911,52.308162308727</coordinates></Point></Placemark>
<Placemark id='57242240'><name>amstelveen, Amstelveen, Dorpsstraat</name><Point><coordinates>4.84561057255646,52.3035257411466</coordinates></Point></Placemark>
<Placemark id='57242250'><name>amstelveen, Amstelveen, KLM Hoofdkantoor</name><Point><coordinates>4.84658576526393,52.3065231593415</coordinates></Point></Placemark>
<Placemark id='57242270'><name>amstelveen, Amstelveen, KLM Hoofdkantoor</name><Point><coordinates>4.84677953807398,52.3062633970735</coordinates></Point></Placemark>
<Placemark id='57242280'><name>amstelveen, Amstelveen, Nesserlaan</name><Point><coordinates>4.83895627308019,52.2772055106392</coordinates></Point></Placemark>
<Placemark id='57242290'><name>amstelveen, Amstelveen, Molenweg</name><Point><coordinates>4.84732612491775,52.3083420873325</coordinates></Point></Placemark>
<Placemark id='57242300'><name>amstelveen, Amstelveen, Molenweg</name><Point><coordinates>4.84669957676721,52.3080156632004</coordinates></Point></Placemark>
<Placemark id='57242470'><name>amstelveen, Amstelveen, Jan Benninghstraat</name><Point><coordinates>4.85055391716899,52.3081860069677</coordinates></Point></Placemark>
<Placemark id='57242480'><name>amstelveen, Amstelveen, Heemraadschapslaan</name><Point><coordinates>4.85631777777449,52.3068548526756</coordinates></Point></Placemark>
<Placemark id='57242490'><name>amstelveen, Amstelveen, Heemraadschapslaan</name><Point><coordinates>4.85672498623599,52.3071353029799</coordinates></Point></Placemark>
<Placemark id='57242520'><name>amstelveen, Amstelveen, Logger</name><Point><coordinates>4.85946961500537,52.2834465777626</coordinates></Point></Placemark>
<Placemark id='57242530'><name>amstelveen, Amstelveen, Logger</name><Point><coordinates>4.85996913698812,52.283340951657</coordinates></Point></Placemark>
<Placemark id='57242540'><name>amstelveen, Amstelveen, Punter</name><Point><coordinates>4.86498551393379,52.282967747439</coordinates></Point></Placemark>
<Placemark id='57242550'><name>amstelveen, Amstelveen, Punter</name><Point><coordinates>4.86491361570787,52.2828505873668</coordinates></Point></Placemark>
<Placemark id='57242560'><name>amstelveen, Amstelveen, Seine</name><Point><coordinates>4.8664806770974,52.284187705854</coordinates></Point></Placemark>
<Placemark id='57242570'><name>amstelveen, Amstelveen, Seine</name><Point><coordinates>4.86667171124889,52.2841436076232</coordinates></Point></Placemark>
<Placemark id='57242580'><name>amstelveen, Amstelveen, Watercirkel</name><Point><coordinates>4.86794846444188,52.2865040455717</coordinates></Point></Placemark>
<Placemark id='57242590'><name>amstelveen, Amstelveen, Watercirkel</name><Point><coordinates>4.86855863867285,52.2869651051967</coordinates></Point></Placemark>
<Placemark id='57242600'><name>amstelveen, Amstelveen, Groenhof</name><Point><coordinates>4.86808417689548,52.2886886948347</coordinates></Point></Placemark>
<Placemark id='57242610'><name>amstelveen, Amstelveen, Groenhof</name><Point><coordinates>4.86839601701974,52.2895978384381</coordinates></Point></Placemark>
<Placemark id='57242680'><name>amstelveen, Amstelveen, van der Hooplaan</name><Point><coordinates>4.85360751432988,52.2932260462992</coordinates></Point></Placemark>
<Placemark id='57242690'><name>amstelveen, Amstelveen, van der Hooplaan</name><Point><coordinates>4.85297497703598,52.2934119357364</coordinates></Point></Placemark>
<Placemark id='57242700'><name>amstelveen, Amstelveen, Heilige Geestkerk</name><Point><coordinates>4.84966595944419,52.2943137036138</coordinates></Point></Placemark>
<Placemark id='57242710'><name>amstelveen, Amstelveen, Heilige Geestkerk</name><Point><coordinates>4.84961839980042,52.2946100872541</coordinates></Point></Placemark>
<Placemark id='57242740'><name>amstelveen, Amstelveen, Raadhuis</name><Point><coordinates>4.84477724654647,52.3021288035181</coordinates></Point></Placemark>
<Placemark id='57242750'><name>amstelveen, Amstelveen, Raadhuis</name><Point><coordinates>4.84490787384905,52.3022372569156</coordinates></Point></Placemark>
<Placemark id='57242760'><name>amstelveen, Amstelveen, Oude Karselaan</name><Point><coordinates>4.84679505105747,52.3122224126247</coordinates></Point></Placemark>
<Placemark id='57242770'><name>amstelveen, Amstelveen, Oude Karselaan</name><Point><coordinates>4.84701347668566,52.3123492401441</coordinates></Point></Placemark>
<Placemark id='57242780'><name>amstelveen, Amstelveen, Prins Bernhardlaan</name><Point><coordinates>4.84783794434239,52.3157054671508</coordinates></Point></Placemark>
<Placemark id='57242790'><name>amstelveen, Amstelveen, Prins Bernhardlaan</name><Point><coordinates>4.849527663665,52.3154435242396</coordinates></Point></Placemark>
<Placemark id='57242800'><name>amstelveen, Amstelveen, Julianapark</name><Point><coordinates>4.85132947748478,52.3156134812337</coordinates></Point></Placemark>
<Placemark id='57242810'><name>amstelveen, Amstelveen, Julianapark</name><Point><coordinates>4.85354623959005,52.3154257699882</coordinates></Point></Placemark>
<Placemark id='57242820'><name>amstelveen, Amstelveen, Graaf Florislaan</name><Point><coordinates>4.85682277761805,52.3161415568139</coordinates></Point></Placemark>
<Placemark id='57242830'><name>amstelveen, Amstelveen, Graaf Florislaan</name><Point><coordinates>4.85715942925285,52.3161969926996</coordinates></Point></Placemark>
<Placemark id='57242840'><name>amstelveen, Amstelveen, Kalfjesl./Amstelv.wg</name><Point><coordinates>4.8573627165543,52.3225163449327</coordinates></Point></Placemark>
<Placemark id='57242850'><name>amstelveen, Amstelveen, In de Wolken</name><Point><coordinates>4.87028829984361,52.2919879104265</coordinates></Point></Placemark>
<Placemark id='57242860'><name>amstelveen, Amstelveen, In de Wolken</name><Point><coordinates>4.8696335450734,52.2915716046513</coordinates></Point></Placemark>
<Placemark id='57242870'><name>amstelveen, Amstelveen, Ziekenhuis</name><Point><coordinates>4.87199054631545,52.2943501590494</coordinates></Point></Placemark>
<Placemark id='57242880'><name>amstelveen, Amstelveen, Ziekenhuis</name><Point><coordinates>4.87184157177593,52.2945562306889</coordinates></Point></Placemark>
<Placemark id='57242910'><name>amstelveen, Amstelveen, Johannes Calvijnlaan</name><Point><coordinates>4.86098843834208,52.2962790440366</coordinates></Point></Placemark>
<Placemark id='57242920'><name>amstelveen, Amstelveen, Johannes Calvijnlaan</name><Point><coordinates>4.86199955302489,52.2963105024334</coordinates></Point></Placemark>
<Placemark id='57242930'><name>amstelveen, Amstelveen, Ingenieur Romplaan</name><Point><coordinates>4.85762598010099,52.2967403912239</coordinates></Point></Placemark>
<Placemark id='57242940'><name>amstelveen, Amstelveen, Ingenieur Romplaan</name><Point><coordinates>4.85771510918692,52.2966419238046</coordinates></Point></Placemark>
<Placemark id='57242950'><name>amstelveen, Amstelveen, Hueseplein</name><Point><coordinates>4.85520390181337,52.2982394814707</coordinates></Point></Placemark>
<Placemark id='57242960'><name>amstelveen, Amstelveen, Hueseplein</name><Point><coordinates>4.85475732851773,52.2975813576133</coordinates></Point></Placemark>
<Placemark id='57242990'><name>amstelveen, Amstelveen, Ziekenhuis (lvHM)</name><Point><coordinates>4.87319341737009,52.2930072144746</coordinates></Point></Placemark>
<Placemark id='57243000'><name>amstelveen, Amstelveen, Ziekenhuis (lvHM)</name><Point><coordinates>4.87279413222582,52.2933110655345</coordinates></Point></Placemark>
<Placemark id='57243010'><name>amstelveen, Amstelveen, Ouderkerkerlaan</name><Point><coordinates>4.8684001667403,52.2967791601126</coordinates></Point></Placemark>
<Placemark id='57243020'><name>amstelveen, Amstelveen, Bankrashof</name><Point><coordinates>4.87616847504167,52.3019809970333</coordinates></Point></Placemark>
<Placemark id='57243030'><name>amstelveen, Amstelveen, Bankrashof</name><Point><coordinates>4.8758417078765,52.302348086272</coordinates></Point></Placemark>
<Placemark id='57243040'><name>amstelveen, Amstelveen, Gas en Water</name><Point><coordinates>4.86830968954596,52.3020186817867</coordinates></Point></Placemark>
<Placemark id='57243050'><name>amstelveen, Amstelveen, Gas en Water</name><Point><coordinates>4.86851461992734,52.302046544256</coordinates></Point></Placemark>
<Placemark id='57243060'><name>amstelveen, Amstelveen, Binnenhof</name><Point><coordinates>4.86334777523702,52.3013227190744</coordinates></Point></Placemark>
<Placemark id='57243070'><name>amstelveen, Amstelveen, Binnenhof</name><Point><coordinates>4.86315528641107,52.3014836476748</coordinates></Point></Placemark>
<Placemark id='57243080'><name>amstelveen, Amstelveen, Saskia v.Uylenburgw.</name><Point><coordinates>4.87361308912411,52.3163145100983</coordinates></Point></Placemark>
<Placemark id='57243090'><name>amstelveen, Amstelveen, 't Huis a/d Poel</name><Point><coordinates>4.84469496237085,52.2956571601269</coordinates></Point></Placemark>
<Placemark id='57243100'><name>amstelveen, Amstelveen, 't Huis a/d Poel</name><Point><coordinates>4.84458807667777,52.2960071968502</coordinates></Point></Placemark>
<Placemark id='57243110'><name>amstelveen, Amstelveen, Bovenkerkerweg</name><Point><coordinates>4.84287907761578,52.2883236915387</coordinates></Point></Placemark>
<Placemark id='57243120'><name>amstelveen, Amstelveen, Startbaan</name><Point><coordinates>4.85332234297651,52.2864568860007</coordinates></Point></Placemark>
<Placemark id='57243130'><name>amstelveen, Amstelveen, Startbaan</name><Point><coordinates>4.8539747140648,52.2870530301636</coordinates></Point></Placemark>
<Placemark id='57243140'><name>amstelveen, Amstelveen, Grote Beer</name><Point><coordinates>4.85118609083431,52.2837328785996</coordinates></Point></Placemark>
<Placemark id='57243150'><name>amstelveen, Amstelveen, Grote Beer</name><Point><coordinates>4.85123124519573,52.283634216495</coordinates></Point></Placemark>
<Placemark id='57243160'><name>amstelveen, Amstelveen, Poortwachter</name><Point><coordinates>4.84499335524194,52.2832103073429</coordinates></Point></Placemark>
<Placemark id='57243170'><name>amstelveen, Amstelveen, Poortwachter</name><Point><coordinates>4.84477387244514,52.2831823369174</coordinates></Point></Placemark>
<Placemark id='57243180'><name>amstelveen, Amstelveen, Handweg</name><Point><coordinates>4.8433398894174,52.2913906810108</coordinates></Point></Placemark>
<Placemark id='57243210'><name>amstelveen, Amstelveen, Kruiskerk</name><Point><coordinates>4.85688027652048,52.3113243345374</coordinates></Point></Placemark>
<Placemark id='57243220'><name>amstelveen, Amstelveen, Kruiskerk</name><Point><coordinates>4.85644198456902,52.3111875510999</coordinates></Point></Placemark>
<Placemark id='57243230'><name>amstelveen, Amstelveen, Dijkgravenlaan</name><Point><coordinates>4.85690496061116,52.3129422561678</coordinates></Point></Placemark>
<Placemark id='57243240'><name>amstelveen, Amstelveen, Dijkgravenlaan</name><Point><coordinates>4.85652101469253,52.3131652302376</coordinates></Point></Placemark>
<Placemark id='57243250'><name>amstelveen, Amstelveen, Keizer Karelplein</name><Point><coordinates>4.85373400276747,52.298565411025</coordinates></Point></Placemark>
<Placemark id='57243260'><name>amstelveen, Amstelveen, Keizer Karelplein</name><Point><coordinates>4.85383435253468,52.2987546087905</coordinates></Point></Placemark>
<Placemark id='57243270'><name>amstelveen, Amstelveen, Handweg</name><Point><coordinates>4.84383196010929,52.2919052524749</coordinates></Point></Placemark>
<Placemark id='57243280'><name>amstelveen, Amstelveen, Sportlaan</name><Point><coordinates>4.85439231905418,52.2913421313442</coordinates></Point></Placemark>
<Placemark id='57243290'><name>amstelveen, Amstelveen, Sportlaan</name><Point><coordinates>4.85471433834118,52.2913795333721</coordinates></Point></Placemark>
<Placemark id='57243300'><name>amstelveen, Amstelveen, Westwijkplein</name><Point><coordinates>4.82546332151827,52.2816541009323</coordinates></Point></Placemark>
<Placemark id='57243310'><name>amstelveen, Amstelveen, Westwijkplein</name><Point><coordinates>4.8256240567255,52.2816908161679</coordinates></Point></Placemark>
<Placemark id='57243320'><name>amstelveen, Amstelveen, Doctor Plesmansingel</name><Point><coordinates>4.85461663157677,52.2946416912949</coordinates></Point></Placemark>
<Placemark id='57243330'><name>amstelveen, Amstelveen, Doctor Plesmansingel</name><Point><coordinates>4.85479597051156,52.2943548869913</coordinates></Point></Placemark>
<Placemark id='57243350'><name>amstelveen, Amstelveen, Lien Gisolflaan</name><Point><coordinates>4.88151086957876,52.3079179561649</coordinates></Point></Placemark>
<Placemark id='57243370'><name>amstelveen, Amstelveen, Lien Gisolflaan</name><Point><coordinates>4.8816329736138,52.3074960500714</coordinates></Point></Placemark>
<Placemark id='57243380'><name>amstelveen, Amstelveen, Boschplaat</name><Point><coordinates>4.81990813622229,52.2817444189807</coordinates></Point></Placemark>
<Placemark id='57243390'><name>amstelveen, Amstelveen, Boschplaat</name><Point><coordinates>4.8216601409361,52.281105682769</coordinates></Point></Placemark>
<Placemark id='57243400'><name>amstelveen, Amstelveen, Ouderkerkerlaan</name><Point><coordinates>4.86734422003178,52.2968194623092</coordinates></Point></Placemark>
<Placemark id='57243410'><name>amstelveen, Amstelveen, Lindenlaan</name><Point><coordinates>4.84735217171928,52.2965411439675</coordinates></Point></Placemark>
<Placemark id='57243420'><name>amstelveen, Amstelveen, Lindenlaan</name><Point><coordinates>4.8471166528545,52.2966209594342</coordinates></Point></Placemark>
<Placemark id='57243430'><name>amstelveen, Amstelveen, Icaruslaan</name><Point><coordinates>4.85055066937347,52.2975263916897</coordinates></Point></Placemark>
<Placemark id='57243440'><name>amstelveen, Amstelveen, Icaruslaan</name><Point><coordinates>4.85043209638201,52.297633707976</coordinates></Point></Placemark>
<Placemark id='57243450'><name>amstelveen, Amstelveen, Wimbledonpark</name><Point><coordinates>4.84652282159397,52.2912075441014</coordinates></Point></Placemark>
<Placemark id='57243460'><name>amstelveen, Amstelveen, Wimbledonpark</name><Point><coordinates>4.84886996980554,52.2910474832001</coordinates></Point></Placemark>
<Placemark id='57243470'><name>amstelveen, Amstelveen, Gan Hasjalom</name><Point><coordinates>4.88134643803948,52.3172106618384</coordinates></Point></Placemark>